who_region,country_name,city,year,pm10_concentration,pm25_concentration,no2_concentration,latitude,longitude,pm10_imputed,pm25_imputed,no2_imputed,aqi_level,aqi_category
Eur,Germany,Aachen,2010,25.955,10.36544444,37.283,50.763918,6.094849,no,yes,no,2,Good
Eur,Switzerland,Aadorf,2010,16.271,7.5,14.17,47.479767,8.904696,no,yes,no,1,Very Good
Eur,Denmark,Aalborg,2010,29.61782261,17.319,26.971,57.049444,9.924178,yes,no,no,2,Good
Eur,Germany,Aalen,2010,21.047,9.657,22.466,48.847917,10.096292,no,yes,no,2,Good
Eur,Norway,Aalesund,2010,15.533,15.49752066,29.321,62.47138967,6.166125,no,yes,no,2,Good
Eur,Belgium,Aarschot,2010,25.552,12.59485714,22.377,50.978088,4.836336,no,yes,no,2,Good
Eur,Spain,Abanto Y Ciervana,2010,20.093,7.8308,18.767,43.320556,-3.073889,no,yes,no,2,Good
Eur,United Kingdom of Great Britain and Northern Ireland,Aberdeen,2010,13.295,7.074,58.645,57.15309167,-2.098342667,no,no,no,2,Good
Amr,United States of America,Aberdeen SD,2010,19.3,8.7,22.79924065,45.4625,-98.486111,no,no,yes,1,Very Good
Eur,France,Abos,2010,14.59922222,15.49267444,9.302,43.359722,-0.566944,yes,yes,no,2,Good
Amr,Mexico,Acolman,2010,37.82371429,19.26,14.3112,19.635501,-98.912003,yes,no,yes,2,Good
Eur,Turkey,Adana,2010,57.176,15.49267444,27.607,37.010763,35.31610975,no,yes,yes,4,Poor
Eur,Turkey,Adiyaman,2010,95.326,15.49267444,22.79924065,37.760555,38.278332,no,yes,yes,4,Poor
Eur,Italy,Adria,2010,30.211,15.49267444,21.01,45.046667,12.061944,no,yes,no,2,Good
Amr,United States of America,Adrian MI,2010,29.61782261,8.9,22.79924065,41.9955677,-83.94655938,yes,no,yes,2,Good
Eur,Turkey,Afyonkarahisar,2010,101.497,15.49267444,37.779,38.752777,30.543612,no,yes,yes,5,Very Poor
Eur,France,Agen,2010,21.431,15.49267444,13.011,44.192222,0.623889,no,yes,no,2,Good
Eur,Greece,Agia Paraskevi,2010,28.204,15.49267444,13.231,37.995106,23.819418,no,yes,no,2,Good
Sear,India,Agra,2010,188.25,108.6683333,25.5,27.193836,78.03331842,no,yes,no,6,Extremely Poor
Eur,Turkey,Agri,2010,66.329,15.49267444,10.014,39.722221,43.405003,no,yes,yes,4,Poor
Amr,Mexico,Agua Prieta,2010,50.357,15.49267444,22.79924065,31.3283,-109.5472,no,yes,yes,4,Poor
Eur,Spain,Aguimes,2010,24.839,7.378,10.356,27.883701,-15.414686,no,no,no,2,Good
Emr,Iran (Islamic Republic of),Ahvaz,2010,239.5,57.6,38.5095,31.32820034,48.69677448,no,yes,yes,6,Extremely Poor
Eur,Spain,Aia,2010,11.348,5.0875,6.306,43.250556,-2.155,no,yes,no,1,Very Good
Eur,France,Airvault,2010,23.057,15.49267444,11.822,46.824369,-0.135461,no,yes,no,2,Good
Eur,France,Aix En Provence,2010,28.128,14.916,30.526,43.528735,5.44343325,no,no,no,2,Good
Eur,France,Ajaccio,2010,22.642,9.5934,23.498,41.9332012,8.7446112,no,yes,no,2,Good
Eur,Hungary,Ajka,2010,23.066,12.0585,12.02,47.105278,17.556665,no,yes,no,2,Good
Amr,United States of America,Akron OH,2010,29.61782261,12.367,22.79924065,41.10526267,-81.41522933,yes,no,yes,2,Good
Eur,Turkey,Aksaray,2010,81.364,21.7765,29.669,38.368053,34.013332,no,yes,yes,4,Poor
Eur,Iceland,Akureyri,2010,32.807,15.49267444,5.806,65.688614,-18.100834,no,yes,no,2,Good
Eur,Spain,Alagon,2010,21.297,11.89425,24.656,41.762778,-1.143333,no,yes,no,2,Good
Eur,Portugal,Alandroal,2010,21.288,9.8645,4.804,38.614998,-7.397514,no,yes,no,2,Good
Eur,Italy,Alatri,2010,26.20033333,19.8005,41.265,41.73,13.338333,yes,yes,no,2,Good
Eur,Italy,Alba,2010,32.557,15.49537696,29.812,44.703613,8.033055,no,yes,no,2,Good
Eur,Romania,Alba Iulia,2010,21.346,15.49537696,18.608,46.064224,23.563482,no,yes,no,2,Good
Eur,Spain,Albacete,2010,34.184,14.159,12.701,38.981667,-1.956667,no,no,no,2,Good
Eur,Spain,Albalat Dels Tarongers,2010,9.265555556,5.763333333,10.782,39.705278,-0.336667,yes,yes,no,1,Very Good
Wpr,Australia,Albany,2010,15.9,15.49537696,22.79924065,-35.011,117.888,no,yes,yes,2,Good
Amr,United States of America,Albany GA,2010,29.61782261,12.3,22.79924065,31.5776,-84.0998,yes,no,yes,2,Good
Amr,United States of America,Albany Schenectady Troy NY,2010,29.61782261,7.9,22.79924065,42.6615,-73.755985,yes,no,yes,2,Good
Eur,Italy,Albenga,2010,17.80188889,10.93244444,25.605,44.051945,8.206944,yes,yes,no,2,Good
Eur,France,Albertville,2010,21.88,9.47375,25.372,45.675,6.389722,no,yes,no,2,Good
Eur,France,Albi,2010,22.116,15.49537696,17.039,43.928056,2.146111,no,yes,no,2,Good
Amr,United States of America,Albuquerque NM,2010,21.067,5.3,22.7,35.09856,-106.6157567,no,no,no,2,Good
Eur,Spain,Alcala De Guadaira,2010,29.939,15.49537696,19.481,37.342461,-5.833719,no,yes,no,2,Good
Eur,Spain,Alcala De Henares,2010,34.064,11.656,30.188,40.479167,-3.377778,no,yes,no,2,Good
Eur,Spain,Alcaniz,2010,19.956,15.49537696,6.673,41.066528,-0.1872225,no,yes,no,2,Good
Eur,Spain,Alcantarilla,2010,22.25433333,15.896,27.235,37.975556,-1.230833,yes,yes,no,2,Good
Eur,Spain,Alcobendas,2010,17.794,12.32,28.809,40.540556,-3.644722,no,yes,no,2,Good
Eur,Spain,Alcora,2010,32.105,9.617,11.979,40.051944,-0.189722,no,no,no,2,Good
Eur,Spain,Alcorcon,2010,25.449,8.894,36.297,40.341944,-3.833889,no,no,no,2,Good
Eur,Spain,Alcorisa,2010,10.39366667,5.377142857,2.744,40.894722,-0.370278,yes,yes,no,1,Very Good
Eur,Spain,Alcover,2010,20.187875,11.146,10.822,41.280278,1.181111,yes,yes,no,2,Good
Eur,Spain,Alcoy,2010,13.654,11.059,15.449,38.706389,-0.466944,no,no,no,2,Good
Eur,Spain,Alcudia,2010,29.60594772,15.48462736,8.513,39.8375,3.146667,yes,yes,no,2,Good
Eur,Italy,Alessandria,2010,33.729,22.47311111,40.451,44.912363,8.616389,no,yes,no,3,Moderate
Eur,Romania,Alexandria,2010,30.655,15.48462736,18.01,43.980331,25.312403,no,yes,no,2,Good
Amr,United States of America,Alexandria LA,2010,29.60594772,9.2,22.79924065,31.17782412,-92.41074597,yes,no,yes,2,Good
Eur,Spain,Alfaro,2010,29.495,11.26,10.527,42.175833,-1.743333,no,no,no,2,Good
Eur,Italy,Alfonsine,2010,29.60594772,23.939,13.917,44.641392,11.982222,yes,no,no,3,Moderate
Eur,Spain,Algeciras,2010,25.09385714,10.119,29.095,36.148985,-5.4479905,yes,yes,no,2,Good
Eur,Spain,Algete,2010,31.884,9.362,13.191,40.593333,-3.503056,no,no,no,2,Good
Eur,Spain,Alicante,2010,23.26,12.143,27.461,38.35027767,-0.4975,no,no,no,2,Good
Amr,United States of America,Allentown Bethlehem Easton PA NJ,2010,14.5,13.7,20.1,40.72152667,-75.28047533,no,no,no,2,Good
Eur,Italy,Allumiere,2010,13.029,8.77,10.559,42.157778,11.908611,no,yes,no,1,Very Good
Eur,Portugal,Almada,2010,25.918,9.277,27.772,38.663612,-9.157783,no,no,no,2,Good
Eur,Spain,Almazora,2010,32.013,11.817,25.577,39.945278,-0.056389,no,no,no,2,Good
Eur,Spain,Almeria,2010,26.91828571,13.673,21.549,36.8531405,-2.4186095,yes,yes,no,2,Good
Eur,Sweden,Almhult,2010,11.653,7.789,7.6475,56.551109,14.138614,no,yes,yes,1,Very Good
Eur,Spain,Almonte,2010,14.777,15.48462736,4.501,37.0161,-6.570419,yes,yes,no,2,Good
Eur,Germany,Alt Zauche Wusswerk,2010,22.499,15.48462736,7.881,51.897598,14.057064,no,yes,no,2,Good
Eur,Italy,Altamura,2010,21.258,11.8276,27.75,40.827778,16.560278,no,yes,no,2,Good
Eur,Germany,Altenburg,2010,24.518,9.842666667,18.453,50.987759,12.437622,no,yes,no,2,Good
Amr,United States of America,Altoona PA,2010,29.60594772,9.790909091,22.79924065,40.535278,-78.370833,yes,yes,yes,2,Good
Amr,Mexico,Alvaro Obregon,2010,35.463,20.8106,24.7254,19.325146,-99.204136,no,yes,yes,3,Moderate
Eur,Spain,Alzira,2010,19.395,12.0686,12.103,39.15,-0.457778,no,yes,no,2,Good
Eur,Portugal,Amadora Aml Norte,2010,19.776,11.5485,23.332,38.754166,-9.230846,no,yes,no,2,Good
Eur,Greece,Amaroussio,2010,40.618,15.49267444,22.483,38.030838,23.787357,no,yes,no,3,Moderate
Eur,Turkey,Amasya,2010,63.099,34.126,73.2895,40.6675,35.835831,no,yes,yes,4,Poor
Eur,France,Ambes,2010,21.198,19.396,9.486,45.012222,-0.528333,yes,yes,no,2,Good
Eur,Spain,Ametlla De Mar,2010,29.60247049,15.48461699,5.612,40.903889,0.811111,yes,yes,no,2,Good
Eur,France,Amiens,2010,27.161,12.11766667,28.526,49.899444,2.298611,no,yes,no,2,Good
Eur,Spain,Amposta,2010,29.60247049,15.48461699,17.944,40.708056,0.582778,yes,yes,no,2,Good
Eur,Netherlands (Kingdom of the),Amsterdam,2010,25.389,17.632,37.694,52.37346876,4.856739429,no,no,no,2,Good
Eur,Austria,Amstetten,2010,24.263,10.451,26.009,48.120277,14.879178,no,yes,no,2,Good
Eur,Italy,Anagni,2010,31.61,19.801,34.417,41.75,13.149722,no,yes,no,2,Good
Amr,United States of America,Anchorage AK,2010,15.25,6.8,22.79924065,61.41640541,-149.3830459,no,no,yes,1,Very Good
Eur,Italy,Ancona,2010,41.334,22.992,44.096,43.61086344,13.48910467,no,no,no,3,Moderate
Eur,Germany,Andechs,2010,16.494,8.358555556,8.039,47.968754,11.220172,no,yes,no,1,Very Good
Eur,Belgium,Andenne,2010,28.308,12.586,16.115,50.503277,4.987144,no,yes,no,2,Good
Eur,Italy,Andria,2010,20.712,13.1318,24.647,41.231667,16.291666,no,yes,no,2,Good
Eur,France,Angers,2010,22.213,15.991,21.22,47.4632335,-0.5545565,no,no,no,2,Good
Eur,France,Anglet,2010,30.101,11.03861111,30.055,43.494167,-1.527778,no,yes,no,2,Good
Eur,France,Angouleme,2010,25.539,19.161,21.232,45.647417,0.167167,no,no,no,2,Good
Eur,Switzerland,Anieres,2010,19.253,13.13840741,16.076,46.278103,6.221283,no,yes,no,2,Good
Eur,Turkey,Ankara,2010,63.566,20.57366667,56.06266667,39.93896162,32.81710688,no,yes,yes,4,Poor
Amr,United States of America,Ann Arbor MI,2010,29.60247049,9.2,22.79924065,42.24056548,-83.59960223,yes,no,yes,2,Good
Eur,Germany,Annaberg Buchholz,2010,15.46475,12.26266667,26.327,50.570869,12.997278,yes,yes,no,2,Good
Eur,France,Annecy,2010,28.601,21.216,28.016,45.9039444,6.1252222,no,no,no,3,Moderate
Eur,France,Annemasse,2010,18.591,12.84522222,25.116,46.195833,6.240556,yes,yes,no,2,Good
Eur,Greece,Ano Liosia,2010,40.618,15.49267444,30.037,38.076814,23.697842,yes,yes,no,3,Moderate
Eur,Germany,Ansbach,2010,25.202,11.8055,34.551,49.30489,10.572297,no,yes,no,2,Good
Eur,Turkey,Antalya,2010,70.38,32.531,54.165,36.887501,30.702778,no,yes,yes,4,Poor
Eur,France,Antibes,2010,25.7825,16.391,37.458,43.5906945,7.1088915,yes,yes,no,2,Good
Eur,Belgium,Antwerpen,2010,28.267,19.812,38.66,51.25207111,4.406548111,no,no,no,2,Good
Wpr,Republic of Korea,Anyang,2010,53.781,59.60344444,0.033,37.3941,126.958,no,yes,no,5,Very Poor
Eur,Belgium,Anzegem,2010,30.925,15.46842857,22.917,50.833035,3.404508,yes,yes,no,2,Good
Eur,Italy,Aosta,2010,25.675,14.587,28.523,45.73444413,7.322743,no,no,no,2,Good
Amr,United States of America,Appleton WI,2010,29.60598455,9.7,22.79924065,44.30738,-88.39509,yes,no,yes,2,Good
Eur,Italy,Aprilia,2010,21.664,15.48364257,22.713,41.595276,12.653611,no,yes,no,2,Good
Eur,Romania,Arad,2010,25.262,14.439,20.327,46.1859705,21.318602,no,no,no,2,Good
Eur,Spain,Arafo,2010,19.43,8.507,10.642,28.337222,-16.399722,no,no,no,1,Very Good
Emr,Iran (Islamic Republic of),Arak,2010,75.9,19.0435,210.675,34.09820175,49.7057991,no,yes,yes,4,Poor
Eur,Spain,Aranda De Duero,2010,23.382,15.48364257,19.788,41.665556,-3.688889,no,yes,no,2,Good
Eur,Spain,Aranjuez,2010,25.683,15.48364257,22.205,40.043611,-3.590278,no,yes,no,2,Good
Amr,Brazil,Araraquara,2010,36.0,15.48364257,22.0,-21.782063,-48.185377,no,yes,no,2,Good
Amr,Brazil,Araucaria,2010,26.7,15.48364257,36.467,-25.573284,-49.38522133,no,yes,no,2,Good
Eur,France,Arcachon,2010,15.51,15.48364257,22.79924065,44.660556,-1.170556,no,yes,yes,2,Good
Eur,Italy,Arconate,2010,29.60598455,15.48364257,28.178,45.546665,8.848611,yes,yes,no,2,Good
Eur,Spain,Arcos De La Frontera,2010,31.046,15.48364257,4.617142857,36.740725,-5.8324,no,yes,yes,2,Good
Eur,Turkey,Ardahan,2010,73.771,15.48364257,24.00625,41.110832,42.701111,no,yes,yes,4,Poor
Eur,Italy,Arese,2010,36.703,28.608,40.156,45.542778,9.081111,no,yes,no,4,Poor
Eur,Italy,Arezzo,2010,27.128,15.875,35.181,43.46541883,11.87444483,no,no,no,2,Good
Eur,Spain,Arganda Del Rey,2010,24.431,15.49169926,19.488,40.300833,-3.458889,no,yes,no,2,Good
Eur,France,Argenteuil,2010,27.945,18.444,31.036,48.951389,2.223611,yes,yes,no,2,Good
Eur,Spain,Arguedas,2010,17.523,7.600666667,2.58,42.208333,-1.585556,no,yes,no,1,Very Good
Eur,Denmark,Arhus,2010,24.679,14.452,29.812,56.1507796,10.1993996,no,no,no,2,Good
Eur,Spain,Arico,2010,24.4835,6.589,8.987,28.111389,-16.47,yes,no,no,2,Good
Eur,France,Arles,2010,32.529,15.48867308,22.497,43.675556,4.628611,no,yes,no,2,Good
Eur,Sweden,Arlov,2010,16.527,8.005,13.958875,55.635002,13.0784735,no,no,yes,1,Very Good
Eur,United Kingdom of Great Britain and Northern Ireland,Armagh,2010,17.493125,15.48867308,26.014,54.353728,-6.654558,yes,yes,no,2,Good
Eur,France,Armentieres,2010,26.989,15.48867308,24.609,50.688733,2.885236,no,yes,no,2,Good
Eur,Italy,Arnesano,2010,27.562,13.7765,11.591,40.385834,18.095001,no,yes,no,2,Good
Eur,Austria,Arnoldstein,2010,16.31,15.48762652,14.072,46.557313,13.702877,no,yes,no,2,Good
Eur,Spain,Arona,2010,23.796,11.121,6.87,28.084861,-16.60402788,no,no,no,2,Good
Eur,Spain,Arrasate Mondragon,2010,17.701,15.48762652,30.923,43.064167,-2.49,no,yes,no,2,Good
Eur,Spain,Arrecife,2010,24.054,4.946,7.864,28.972361,-13.5516665,no,no,no,2,Good
Eur,Spain,Arrigorriaga,2010,19.15,9.550375,19.808,43.209642,-2.886183,no,yes,no,1,Very Good
Eur,Spain,Arrubal,2010,23.324,10.233,11.353,42.438889,-2.250278,no,no,no,2,Good
Eur,Spain,Arteixo,2010,19.6,9.767375,22.901,43.3118055,-8.49375,no,yes,no,1,Very Good
Eur,Turkey,Artvin,2010,31.556,15.48400404,10.46525,41.175278,41.818333,no,yes,yes,2,Good
Eur,Spain,Arucas,2010,17.72,4.82,4.911,28.111389,-15.521111,no,no,no,1,Very Good
Eur,Germany,Arzberg,2010,20.648,12.66711111,21.501,50.058193,12.18865,no,yes,no,2,Good
Eur,Germany,Aschaffenburg,2010,20.675,11.21577778,33.748,49.991516,9.117972,no,yes,no,2,Good
Eur,Germany,Aschersleben,2010,29.595,15.48400404,30.519,51.759552,11.449439,no,yes,no,2,Good
Eur,Italy,Ascoli Piceno,2010,19.405,15.48400404,22.79924065,42.857498,13.6019445,no,yes,yes,2,Good
Eur,Bulgaria,Asenovgrad,2010,52.319,15.48400404,22.79924065,42.0187965,24.861309,no,yes,yes,4,Poor
Amr,United States of America,Asheville NC,2010,29.6031907,10.2,22.79924065,35.6062,-82.5844,yes,no,yes,2,Good
Eur,Italy,Asiago,2010,29.6031907,15.48400404,7.268,45.848331,11.569166,yes,yes,no,2,Good
Eur,Italy,Assemini,2010,21.687,15.72566667,13.076,39.23416667,8.994259667,no,yes,no,2,Good
Eur,Belgium,Assenede,2010,30.28233333,18.59890476,21.896,51.190849,3.686044,yes,yes,no,2,Good
Eur,Italy,Asti,2010,37.366,20.856,41.896,44.902363,8.2018055,no,yes,no,3,Moderate
Eur,Spain,Astillero,2010,26.093,9.644142857,17.196,43.407222,-3.838056,no,yes,no,2,Good
Amr,Paraguay,Asuncion,2010,29.60347007,18.4,22.79924065,-25.30067571,-57.62930552,yes,no,yes,2,Good
Eur,Spain,Atazar,2010,23.861,8.909,4.238,40.910278,-3.466667,no,no,no,2,Good
Eur,Greece,Athens,2010,48.646,15.49267444,54.985,37.9874696,23.724387,no,yes,no,3,Moderate
Amr,United States of America,Athens Clarke County GA,2010,29.60347007,11.3,22.79924065,33.91813699,-83.3443854,yes,no,yes,2,Good
Amr,United States of America,Athens OH,2010,29.60347007,7.163636364,22.79924065,39.442165,-81.908827,yes,yes,yes,2,Good
Amr,United States of America,Atlanta Sandy Springs Roswell GA,2010,17.90909091,12.94,25.7,33.81590425,-84.35867183,yes,no,no,2,Good
Amr,United States of America,Atlantic City Hammonton NJ,2010,29.60347007,8.8,22.79924065,39.414066,-74.439868,yes,no,yes,2,Good
Eur,France,Atton,2010,21.33,15.48250244,18.13733333,48.886386,6.093611,no,yes,yes,2,Good
Eur,France,Aubervilliers,2010,28.656,17.51597222,37.866,48.903611,2.385278,yes,yes,no,2,Good
Eur,Germany,Augsburg,2010,27.948,15.991,42.185,48.35567911,10.89662078,no,no,no,2,Good
Eur,Italy,Augusta,2010,20.07614286,11.58085714,25.695,37.217777,15.22111,yes,yes,no,2,Good
Amr,United States of America,Augusta Richmond County GA SC,2010,29.60308112,11.35,22.79924065,33.5869315,-81.9380175,yes,no,yes,2,Good
Amr,United States of America,Augusta Waterville ME,2010,12.6,15.4813709,22.79924065,44.312319,-69.786717,no,yes,yes,2,Good
Eur,France,Aurillac,2010,18.712,6.4754,24.23,44.925887,2.439574333,no,yes,no,1,Very Good
Amr,United States of America,Austin Round Rock TX,2010,15.35,10.0,9.0,30.36710367,-97.78325933,no,no,yes,1,Very Good
Eur,France,Auxerre,2010,19.516,8.516714286,19.685,47.800556,3.576389,no,yes,no,1,Very Good
Eur,Portugal,Aveiro,2010,23.8735,15.4813709,27.486,40.380833,-8.384736,yes,yes,no,2,Good
Eur,France,Avenue De l Europe,2010,25.471,15.4813709,22.79924065,45.246497,4.669706,no,yes,yes,2,Good
Eur,France,Avignon,2010,28.235,14.799,19.854,43.94656525,4.8100435,no,no,no,2,Good
Eur,Spain,Aviles,2010,36.351,8.98075,29.083,43.5581945,-5.91902775,no,yes,no,2,Good
Eur,Italy,Avio,2010,21.551,15.4813709,59.651,45.742779,10.972221,no,yes,no,2,Good
Eur,Switzerland,Avully,2010,17.701,8.55,13.939,46.162552,6.005189,no,yes,no,1,Very Good
Eur,Turkey,Aydin,2010,66.134,15.4813709,22.79924065,37.840553,27.836945,no,yes,yes,4,Poor
Eur,Cyprus,Ayia Marina,2010,30.319,15.711,3.02,35.039165,33.05806,no,no,no,2,Good
Eur,France,Aytre,2010,18.63233333,13.941,13.877,46.135153,-1.117042,yes,yes,no,2,Good
Amr,Mexico,Azcapotzalco,2010,48.71728571,23.306,32.79466667,19.468404,-99.169794,yes,no,yes,3,Moderate
Eur,Spain,Azpeitia,2010,25.379,5.0875,23.072,43.18,-2.268056,no,yes,no,2,Good
Eur,Spain,Azuqueca De Henares,2010,24.97,7.884,15.269,40.573611,-3.263333,yes,yes,no,2,Good
Eur,Romania,Bacau,2010,21.916,12.932,20.981,46.5602625,26.918851,no,no,no,2,Good
Eur,Germany,Bad Arolsen,2010,16.875,13.36,10.186,51.430901,8.928172,no,no,no,2,Good
Eur,Germany,Bad Belzig,2010,20.55,10.35642857,9.657,52.194225,12.561389,no,yes,no,2,Good
Eur,Austria,Bad Ischl,2010,21.095,15.47417293,14.656,47.716667,13.632792,no,yes,no,2,Good
Eur,Germany,Bad Kreuznach,2010,15.71433333,15.621,31.76,49.842133,7.866208,yes,no,no,2,Good
Eur,Germany,Bad Lauterberg Im Harz,2010,22.434,18.396,44.517,51.613647,10.42275,no,no,no,2,Good
Eur,Germany,Bad Reichenhall,2010,29.60118076,15.47417293,20.592,47.723186,12.858856,yes,yes,no,2,Good
Eur,Austria,Bad Voslau,2010,21.607,8.252,17.253,47.959999,16.206951,no,yes,no,2,Good
Eur,Spain,Badajoz,2010,16.805,7.3905,9.043,38.887631,-7.01145,no,yes,no,1,Very Good
Eur,Spain,Badalona,2010,20.965,17.164,40.975,41.449444,2.237778,yes,yes,no,2,Good
Eur,France,Bagnolet,2010,28.656,17.51597222,39.419,48.8728,2.4219,yes,yes,no,2,Good
Eur,Romania,Baia Mare,2010,22.218,15.022,21.556,47.6558088,23.5729556,no,no,no,2,Good
Eur,France,Baie Mahault,2010,21.42825,7.827,9.162,16.256114,-61.590269,yes,yes,no,2,Good
Eur,Spain,Bailen,2010,33.767,14.84471429,23.158,38.092931,-3.783919,no,yes,no,2,Good
Amr,United States of America,Bakersfield CA,2010,22.85,12.133,20.433,35.38478441,-118.7449508,no,no,no,2,Good
Eur,Turkey,Balikesir,2010,75.564,25.371,30.54233333,39.633892,27.895834,no,yes,yes,4,Poor
Amr,United States of America,Baltimore Columbia Towson MD,2010,16.6,10.725,33.0,39.3297536,-76.5274938,no,no,no,2,Good
Eur,Germany,Bamberg,2010,21.399,11.889375,33.407,49.898331,10.887686,no,yes,no,2,Good
Eur,Slovakia,Banska Bystrica,2010,50.004,23.97,37.972,48.7343342,19.1391106,no,no,no,4,Poor
Eur,Montenegro,Bar,2010,33.999,11.657,18.031,42.0994,19.0989,no,yes,no,2,Good
Eur,France,Bar Le Duc,2010,24.301,15.47181842,21.182,48.775858,5.162789,no,yes,no,2,Good
Amr,United States of America,Baraboo WI,2010,9.933333333,8.3,22.80335738,43.4351,-89.67979,yes,no,yes,1,Very Good
Eur,Spain,Barakaldo,2010,23.723,9.12048125,34.8,43.299167,-2.987222,no,yes,no,2,Good
Eur,Spain,Barbera Del Valles,2010,24.195,17.164,40.205,41.513889,2.126667,yes,yes,no,2,Good
Eur,Spain,Barcarrota,2010,15.182,7.643,2.942,38.472778,-6.923611,no,no,no,1,Very Good
Eur,Spain,Barcelona,2010,27.425,17.164,46.939,41.40212967,2.164930667,no,no,no,2,Good
Eur,Italy,Bari,2010,22.594,14.91285714,29.649,41.10555391,16.86813136,no,yes,no,2,Good
Eur,United Kingdom of Great Britain and Northern Ireland,Barnsley,2010,29.59857881,15.46902181,25.122,53.56292,-1.510436,yes,yes,no,2,Good
Amr,Brazil,Barra Mansa,2010,41.0,11.16,14.822,-22.52784467,-44.19276967,no,yes,yes,3,Moderate
Eur,Portugal,Barreiro,2010,23.177,11.5485,24.551,38.655569,-9.056306571,no,yes,no,2,Good
Eur,Spain,Barrios,2010,25.531,9.912,17.889,36.1918722,-5.490746,no,yes,no,2,Good
Eur,Turkey,Bartin,2010,64.872,25.48066667,29.406,41.624443,32.356388,no,yes,yes,4,Poor
Eur,Spain,Basauri,2010,31.385,9.442901563,32.356,43.241111,-2.884167,no,yes,no,2,Good
Eur,Switzerland,Basel,2010,21.867,11.60309091,39.148,47.55800467,7.586682667,no,yes,no,2,Good
Eur,Italy,Bassano Del Grappa,2010,29.59857881,17.55922222,27.105,45.760834,11.736667,yes,yes,no,2,Good
Eur,France,Bassens,2010,21.198,19.396,19.896,44.900278,-0.514722,no,no,no,2,Good
Eur,France,Bastia,2010,19.939,11.23,21.475,42.6877214,9.442779,no,no,no,2,Good
Eur,United Kingdom of Great Britain and Northern Ireland,Bath,2010,29.59857881,15.45716502,60.475,51.391127,-2.354155,yes,yes,no,2,Good
Eur,Turkey,Batman,2010,142.629,15.45716502,22.80007287,37.903614,41.128887,no,yes,yes,5,Very Poor
Amr,United States of America,Baton Rouge LA,2010,27.8,10.833,13.167,30.37841891,-91.08626056,no,no,no,2,Good
Amr,Brazil,Bauru,2010,34.0,15.45716502,21.0,-22.326377,-49.092297,no,yes,no,2,Good
Eur,Germany,Bautzen,2010,26.321,9.064,22.497,51.175671,14.443772,no,yes,no,2,Good
Amr,United States of America,Bay City MI,2010,29.59857881,8.2,22.80007287,43.57139061,-83.89072068,yes,no,yes,2,Good
Eur,Turkey,Bayburt,2010,66.583,15.45716502,23.9554,40.258888,40.224167,no,yes,yes,4,Poor
Eur,France,Bayonne,2010,16.852,8.328222222,21.072,43.479722,-1.488056,no,yes,no,1,Very Good
Eur,Germany,Bayreuth,2010,23.869,15.45716502,32.846,49.9453605,11.5729215,no,yes,no,2,Good
Eur,Spain,Beasain,2010,18.662,8.68825,29.543,43.048333,-2.191111,no,yes,no,1,Very Good
Amr,United States of America,Beaumont Port Arthur TX,2010,29.59857881,15.45716502,10.375,29.991142,-94.040269,yes,yes,no,2,Good
Amr,United States of America,Beaver Dam WI,2010,13.8,9.5,22.80007287,43.46611,-88.62111,no,no,yes,1,Very Good
Eur,Germany,Bebra,2010,19.477,15.45716502,17.949,50.970028,9.800261,no,yes,no,2,Good
Eur,Luxembourg,Bekerich,2010,14.785,16.345,15.027,49.731945,5.846956,no,no,no,2,Good
Eur,Germany,Belau,2010,19.677,16.209,12.618,54.09323,10.240596,no,no,no,2,Good
Eur,France,Belesta En Lauragais,2010,29.59857881,15.45716502,6.22,43.441392,1.821944,yes,yes,no,2,Good
Eur,United Kingdom of Great Britain and Northern Ireland,Belfast,2010,14.871,13.509,34.752,54.59965,-5.928833,yes,no,no,2,Good
Eur,France,Belfort,2010,29.667,15.45716502,31.982,47.640667,6.859278,no,yes,no,2,Good
Eur,Serbia,Belgrade,2010,32.201,24.158,32.626,44.80323575,20.45102963,no,yes,no,3,Moderate
Amr,Peru,Bellavista,2010,36.73,19.64,1.9,-12.0636,-77.125855,no,no,no,2,Good
Amr,Colombia,Bello,2010,54.0,16.2255,17.26666667,6.342308,-75.53149,no,yes,yes,4,Poor
Eur,Italy,Belluno,2010,18.37188889,18.732,25.57,46.141392,12.216944,yes,no,no,2,Good
Eur,Spain,Bellver De Cerdanya,2010,19.718125,11.2285,7.387,42.370278,1.778056,yes,yes,no,2,Good
Eur,Czechia,Belotin,2010,34.471,22.73966667,22.80007287,49.587082,17.804222,no,yes,yes,3,Moderate
Eur,Poland,Belsk Duzy,2010,34.577,15.45716502,12.004,51.835164,20.791511,no,yes,no,2,Good
Eur,Spain,Benahadux,2010,22.278,13.673,11.535,36.9231,-2.463219,yes,yes,no,2,Good
Eur,Spain,Benicasim,2010,8.912888889,7.875,20.524,40.062222,0.072778,yes,no,no,1,Very Good
Eur,Spain,Benidorm,2010,12.963,9.159,9.147,38.571389,-0.146667,no,no,no,1,Very Good
Amr,United States of America,Bennington VT,2010,29.59857881,6.9,22.80007287,42.88759,-73.24984,yes,no,yes,2,Good
Eur,Italy,Bentivoglio,2010,27.986,15.45610428,26.203,44.606667,11.421667,no,yes,no,2,Good
Eur,Belgium,Berendrecht,2010,28.098,19.675,34.05133333,51.341259,4.320547,no,yes,yes,2,Good
Eur,Spain,Berga,2010,18.18225,10.982,22.193,42.097778,1.848333,yes,yes,no,2,Good
Eur,Italy,Bergamo,2010,35.296,27.355,38.208,45.695324,9.6573605,no,no,no,4,Poor
Eur,Norway,Bergen,2010,22.299,11.841,47.537,60.3861125,5.334453,no,no,no,2,Good
Eur,Germany,Berlin,2010,28.62,21.334,32.888,52.49798071,13.40641435,no,no,no,3,Moderate
Eur,Switzerland,Bern,2010,23.229,13.33454545,33.217,46.958833,7.456342667,no,yes,no,2,Good
Eur,Germany,Bernau Bei Berlin,2010,31.177,14.36688889,28.593,52.67765,13.58227,no,yes,no,2,Good
Eur,Germany,Bernburg,2010,24.912,15.45860956,23.819,51.803566,11.738976,no,yes,no,2,Good
Eur,Spain,Bernedo,2010,9.283,15.45860956,7.868,42.653333,-2.501389,no,yes,no,2,Good
Eur,Germany,Bernhausen,2010,22.626,20.981,32.836,48.678069,9.227769,no,yes,no,3,Moderate
Eur,Czechia,Beroun,2010,30.707,18.252,35.666,49.957928,14.0583,no,no,no,2,Good
Eur,Italy,Bertonico,2010,36.22,15.46188306,26.197,45.235001,9.666945,no,yes,no,2,Good
Eur,Belgium,Bertrix,2010,23.192,10.3,10.379,49.877705,5.201114,no,yes,no,2,Good
Eur,France,Besancon,2010,23.341,14.199,31.003,47.23753171,6.008250143,no,no,no,2,Good
Eur,Italy,Besenzone,2010,29.59857881,21.91,18.331,44.989445,10.019166,yes,no,no,3,Moderate
Eur,France,Betheny,2010,25.254,19.693,20.332,49.282219,4.051111,yes,yes,no,2,Good
Eur,France,Bethune,2010,19.629,13.366,22.677,50.535386,2.635692,yes,yes,no,2,Good
Eur,Belgium,Beveren,2010,21.3886,21.225,32.471,51.27325186,4.255923857,yes,no,no,3,Moderate
Eur,Poland,Biala Podlaska,2010,36.201,26.994,13.2892,52.029167,23.149445,no,no,yes,4,Poor
Eur,Poland,Bialystok,2010,27.716,23.727,11.762,53.13277625,23.180903,no,no,no,3,Moderate
Eur,United Kingdom of Great Britain and Northern Ireland,Biandrate,2010,21.459,17.229,37.693,52.132417,-0.300306,no,no,no,2,Good
Eur,France,Biarritz,2010,27.703,13.749,16.382,43.461389,-1.5525,no,no,no,2,Good
Eur,Germany,Biberach,2010,18.95,8.037,20.138,48.089886,9.800325,no,yes,no,1,Very Good
Eur,Netherlands (Kingdom of the),Biddinghuizen,2010,22.917,15.46438816,14.247,52.448502,5.61915,no,yes,no,2,Good
Eur,Austria,Biedermannsdorf,2010,25.693,18.42455556,30.156,48.083332,16.337223,no,yes,no,2,Good
Eur,Germany,Bielefeld,2010,24.096,13.50922222,32.803,52.0247035,8.534982,no,yes,no,2,Good
Eur,Italy,Biella,2010,27.331,13.13922222,37.769,45.561388,8.05375,no,yes,no,2,Good
Eur,Poland,Bielsko Biala,2010,47.352,42.346,23.819,49.811943,19.02712967,no,no,no,4,Poor
Eur,Netherlands (Kingdom of the),Biest Houtakker,2010,28.657,12.3525,20.837,51.519444,5.148902,no,yes,no,2,Good
Eur,Spain,Bilbao,2010,31.423,9.97375,35.385,43.25916667,-2.907592333,no,yes,no,2,Good
Eur,Turkey,Bilecik,2010,48.224,13.60633333,15.913,40.141113,29.977777,no,yes,yes,3,Moderate
Eur,France,Billere,2010,20.554,14.486,17.227,43.310833,-0.391111,no,no,no,2,Good
Eur,United Kingdom of Great Britain and Northern Ireland,Billingham,2010,14.7595,9.4,27.63,54.60537,-1.275039,yes,yes,no,1,Very Good
Eur,Netherlands (Kingdom of the),Bilthoven,2010,27.362,16.369,36.621,52.120833,5.195567,yes,no,yes,2,Good
Eur,Turkey,Bingol,2010,45.175,15.46255352,22.81036101,38.883892,40.503613,no,yes,yes,3,Moderate
Eur,Norway,Birkeland,2010,4.644666667,2.506333333,1.023,58.432999,8.269,yes,yes,no,1,Very Good
Eur,United Kingdom of Great Britain and Northern Ireland,Birkenhead,2010,29.58984299,8.921,30.592,53.37287,-3.022722,yes,no,no,2,Good
Eur,United Kingdom of Great Britain and Northern Ireland,Birmingham,2010,20.481,14.623,44.065,52.51172125,-1.8305795,no,no,no,2,Good
Amr,United States of America,Birmingham Hoover AL,2010,26.075,12.525,22.81036101,33.51212967,-86.8103705,no,no,yes,2,Good
Amr,United States of America,Bishop CA,2010,23.223,7.0,22.81036101,36.58321385,-118.0383622,no,no,yes,2,Good
Amr,United States of America,Bismarck ND,2010,13.9,7.8,7.4,47.005629,-101.098133,no,no,no,1,Very Good
Eur,North Macedonia,Bitola,2010,56.365,23.1,19.199,41.035139,21.346533,no,yes,no,4,Poor
Eur,Germany,Bitterfeld,2010,20.042,21.398,12.263,52.1221675,11.737625,no,yes,no,3,Moderate
Eur,France,Bizanos,2010,19.274,11.39905556,18.668,43.307778,-0.322778,no,yes,no,2,Good
Emr,Tunisia,Bizerte,2010,80.0,15.46365791,22.81036101,37.26665878,9.86666584,no,yes,yes,4,Poor
Eur,France,Blagnac,2010,23.166,16.37,24.286,43.6326385,1.3747225,no,yes,no,2,Good
Eur,Bulgaria,Blagoevgrad,2010,33.607,15.464192,16.15,42.001933,23.097822,no,yes,no,2,Good
Eur,Romania,Blejoi,2010,26.304,17.785,27.944,44.984646,26.018019,yes,yes,no,2,Good
Eur,France,Blenod Les Pont A Mousson,2010,23.779,15.48250244,18.13733333,48.884725,6.051392,no,yes,yes,2,Good
Eur,France,Blois,2010,21.076,5.847,16.515,47.594606,1.313703667,no,yes,no,2,Good
Amr,United States of America,Bloomington IN,2010,29.58984299,12.0,22.8084474,39.07243,-86.74759038,yes,no,yes,2,Good
Eur,Austria,Bludenz,2010,18.713,15.46556795,24.821,47.156113,9.82723,no,yes,no,2,Good
Eur,France,Bobigny,2010,26.299,18.701,35.35,48.902503,2.4525,no,no,no,2,Good
Eur,Poland,Bochnia,2010,50.421,27.672625,22.8084474,49.972778,20.428056,no,yes,yes,4,Poor
Eur,Poland,Bogatynia,2010,27.414,11.29514286,14.958,50.905847,14.967194,no,yes,no,2,Good
Eur,Czechia,Bohumin,2010,63.889,47.809,28.511,49.90414,18.347363,no,no,no,4,Poor
Eur,France,Bois Herpin,2010,22.148,15.46311764,22.8084474,48.364167,2.236944,no,yes,yes,2,Good
Amr,United States of America,Boise City ID,2010,18.3,15.46311764,22.8084474,43.5995995,-116.3881435,no,yes,yes,2,Good
Emr,Iran (Islamic Republic of),Bojnord,2010,78.2,15.46311764,22.8084474,37.4756012,57.33549881,no,yes,yes,4,Poor
Eur,Italy,Bolano,2010,23.785,15.925,11.061,44.183056,9.897778,yes,yes,no,2,Good
Eur,Poland,Boles Awiecki,2010,25.974,17.594,9.64,51.317697,15.431735,no,yes,no,2,Good
Eur,Italy,Bologna,2010,29.265,19.394,51.691,44.4931668,11.3389998,no,no,no,2,Good
Eur,Turkey,Bolu,2010,96.702,22.60233333,30.77,40.733891,31.601667,no,yes,yes,4,Poor
Eur,Italy,Bolzano,2010,21.0,14.826,39.082,46.49047671,11.34079357,no,no,no,2,Good
Eur,Germany,Bonn,2010,26.07,15.46338838,29.828,50.753639,7.082675,no,yes,no,2,Good
Eur,France,Bordeaux,2010,28.648,12.04055556,29.459,44.8510556,-0.5724442,no,yes,no,2,Good
Eur,Sweden,Bores,2010,11.469,15.46338838,21.635,57.7269405,12.940488,no,yes,no,2,Good
Eur,Italy,Borgo Valsugana,2010,25.209,17.12677778,30.156,46.051109,11.454444,no,yes,no,2,Good
Eur,Italy,Borgofranco Sul Po,2010,32.762,26.025,22.384,45.051388,11.204444,no,no,no,4,Poor
Eur,Italy,Borgosesia,2010,23.447,14.88511111,22.121,45.713055,8.283055,no,yes,no,2,Good
Eur,Germany,Borken,2010,23.946,10.464,20.723,51.862,6.874553,no,yes,no,2,Good
Eur,Italy,Bormio,2010,17.329,10.0702,19.648,46.47028,10.3725,no,yes,no,2,Good
Eur,Germany,Borna,2010,26.245,15.46338838,28.876,51.125427,12.494156,no,yes,no,2,Good
Eur,Italy,Bosco Chiesanuova,2010,19.83,15.46338838,13.488,45.59,11.037778,no,yes,no,2,Good
Eur,Germany,Bosel,2010,20.978,15.258,13.479,52.997963,7.94257,no,no,no,2,Good
Emr,Iran (Islamic Republic of),Boshehr,2010,255.2,15.46338838,22.8084474,28.93510056,50.84859848,no,yes,yes,6,Extremely Poor
Amr,United States of America,Boston Cambridge Newton MA NH,2010,14.2,7.8,22.5,42.58193247,-71.07071374,no,no,no,1,Very Good
Eur,Romania,Botosani,2010,28.39966667,14.778,22.91,47.739891,26.658577,yes,no,no,2,Good
Eur,Germany,Bottrop,2010,27.282,15.89933333,28.884,51.525963,6.976908,no,yes,no,2,Good
Amr,United States of America,Boulder CO,2010,18.25,6.85,22.8084474,40.0928365,-105.182119,no,no,yes,1,Very Good
Eur,France,Boulogne Sur Mer,2010,28.387,11.259,27.813,50.712472,1.6081,no,yes,no,2,Good
Eur,France,Bourg En Bresse,2010,22.033,8.78675,25.592,46.211667,5.226389,no,yes,no,2,Good
Eur,France,Bourg Les Valence,2010,28.514,19.359,62.196,44.948922,4.889881,no,yes,no,2,Good
Eur,France,Bourges,2010,20.624,8.475,16.01,47.08779433,2.406617667,no,yes,no,2,Good
Eur,Luxembourg,Bourglinster,2010,29.58747849,15.46591702,14.619,49.7225,6.305281,yes,yes,no,2,Good
Eur,France,Bourgoin Jallieu,2010,25.894,15.46591702,17.222,45.608219,5.270872,no,yes,no,2,Good
Eur,United Kingdom of Great Britain and Northern Ireland,Bournemouth,2010,29.58747849,9.687,17.784,50.73957,-1.826744,yes,yes,no,2,Good
Eur,Italy,Bovolone,2010,39.994,15.46591702,28.946,45.256111,11.133611,no,yes,no,2,Good
Eur,Portugal,Braga,2010,25.217,15.46591702,31.441,41.565693,-8.4358425,no,yes,no,2,Good
Afr,Mauritius,Bramsthan,2010,36.55,15.46591702,22.8084474,-20.21401787,57.73726273,no,yes,yes,2,Good
Eur,Germany,Brandenburg,2010,28.654,20.221,43.393,52.409309,12.548375,no,yes,no,3,Moderate
Eur,Germany,Brandenburg An Der Havel,2010,22.156,20.221,15.998,52.420444,12.552303,no,no,no,3,Moderate
Eur,Czechia,Brandys,2010,26.047,15.46868321,22.8084474,50.1898,14.660455,no,yes,yes,2,Good
Eur,Romania,Brasov,2010,26.502,14.486,44.845,45.6511908,25.6140572,no,no,no,2,Good
Eur,Austria,Bratislava,2010,24.37,14.2115,16.151,48.109444,17.071392,no,yes,no,2,Good
Eur,Slovakia,Bratislava,2010,28.403,14.2115,31.105,48.15338067,17.12172067,no,yes,no,2,Good
Eur,Germany,Braubach,2010,20.444,16.201,43.481,50.275108,7.652114,no,yes,yes,2,Good
Eur,Austria,Braunau,2010,23.471,15.46910873,22.666,48.258335,13.040006,no,yes,no,2,Good
Eur,Germany,Braunlage,2010,8.466,6.338,6.541,51.758163,10.612481,no,no,no,1,Very Good
Eur,Germany,Braunschweig,2010,22.982,11.255125,33.666,52.2468335,10.5070945,no,yes,no,2,Good
Eur,Netherlands (Kingdom of the),Breda,2010,28.361,16.718,27.334,51.5994434,4.7985114,no,no,no,2,Good
Eur,Sweden,Bredkalen,2010,3.628,2.074,0.485,63.848888,15.335577,no,no,no,1,Very Good
Eur,Belgium,Bree,2010,29.58747849,15.46910873,22.047,51.134262,5.605355,yes,yes,no,2,Good
Eur,Germany,Bremen,2010,22.614,15.653,27.347,53.099201,8.795844,no,no,no,2,Good
Eur,Germany,Bremerhaven,2010,22.54,11.58433333,34.489,53.573856,8.5840835,no,yes,no,2,Good
Eur,Spain,Brena Baja,2010,21.649,5.859,14.891,28.645278,-17.771111,no,no,no,2,Good
Eur,Italy,Brescia,2010,39.456,30.728,53.861,45.52629617,10.22236083,no,no,no,4,Poor
Eur,Italy,Bressanone,2010,17.047,16.331,28.426,46.715279,11.654444,no,yes,no,2,Good
Eur,France,Brest,2010,25.646,14.678,26.728,48.39458317,-4.478338167,no,no,no,2,Good
Amr,United States of America,Bridgeport Stamford Norwalk CT,2010,29.58747849,8.95,22.81687829,41.285,-73.318889,yes,no,yes,2,Good
Eur,United Kingdom of Great Britain and Northern Ireland,Brighton,2010,29.58747849,9.81425,21.715,50.840836,-0.147572,yes,yes,no,2,Good
Eur,Italy,Brindisi,2010,23.044,12.29111111,20.015,40.63324122,17.95077122,no,yes,no,2,Good
Eur,United Kingdom of Great Britain and Northern Ireland,Bristol,2010,20.331,14.211,47.568,51.46113675,-2.58424125,no,no,no,2,Good
Eur,France,Brive La Gaillarde,2010,20.028,15.46960867,18.341,45.158744,1.537222,no,yes,no,2,Good
Eur,Austria,Brixlegg,2010,23.989,11.30377778,22.81687829,47.430836,11.872784,no,yes,yes,2,Good
Eur,Czechia,Brno,2010,30.61,23.754,38.716,49.19178233,16.62874867,no,no,no,3,Moderate
Eur,Austria,Bruck An Der Mur,2010,25.902,15.46960867,19.567,47.409447,15.253336,no,yes,no,2,Good
Eur,Belgium,Brugge,2010,25.803,18.914,19.404,51.2467415,3.2401055,yes,no,no,2,Good
Eur,Italy,Brugnera,2010,26.196,19.5818125,31.649,45.898613,12.536389,yes,yes,no,2,Good
Eur,Italy,Brunico,2010,17.268,15.47198979,21.505,46.799721,11.943889,no,yes,no,2,Good
Eur,Germany,Brunsbuttel,2010,23.142,17.142,23.786,53.896118,9.156908,no,no,no,2,Good
Amr,United States of America,Brunswick GA,2010,29.58594071,10.6,22.81687829,31.16980486,-81.49503478,yes,no,yes,2,Good
Eur,Belgium,Brussels,2010,27.887,19.953,38.997,50.84492389,4.354376368,no,no,no,2,Good
Eur,Germany,Buckow,2010,24.397,21.027,9.136,52.563835,14.015253,no,no,no,3,Moderate
Eur,Romania,Bucuresti,2010,34.065,23.812,35.98,44.44625915,26.09129462,no,no,no,3,Moderate
Eur,Hungary,Budapest,2010,33.741,22.486,34.386,47.50002545,19.09058927,no,no,no,3,Moderate
Eur,Netherlands (Kingdom of the),Budel,2010,29.58594071,15.47198979,22.104,51.267498,5.561678,yes,yes,no,2,Good
Amr,United States of America,Buffalo Cheektowaga Niagara Falls NY,2010,29.58594071,10.0,24.4,42.87690667,-78.80952601,yes,no,no,2,Good
Eur,Spain,Bujaraloz,2010,16.867,15.47198979,12.925,41.505556,-0.151944,no,yes,no,2,Good
Wpr,Australia,Bunbury,2010,17.6,9.2,22.81687829,-33.3416,115.6433,no,no,yes,1,Very Good
Eur,Spain,Bunol,2010,16.116,9.251,15.663,39.427222,-0.783889,no,no,no,1,Very Good
Eur,Spain,Bunyola,2010,15.38611111,6.701555556,10.602,39.678889,2.687778,yes,yes,no,1,Very Good
Eur,Turkey,Burdur,2010,81.559,25.028,30.4205,37.723057,30.294443,no,yes,yes,4,Poor
Eur,Germany,Burg Bei Magdeburg,2010,25.614,21.035,16.555,52.268368,11.864795,no,no,no,3,Moderate
Eur,Bulgaria,Burgas,2010,36.89,15.47198979,17.062,42.48557225,27.42148125,no,yes,no,2,Good
Eur,Germany,Burghausen,2010,25.419,12.73911111,29.626,48.177174,12.829314,no,yes,no,2,Good
Eur,Spain,Burgos,2010,21.503,15.47198979,16.59,42.3408335,-3.678611,no,yes,no,2,Good
Eur,Spain,Burjassot,2010,22.034,10.4495,29.74,39.509444,-0.417778,no,yes,no,2,Good
Amr,United States of America,Burlington South Burlington VT,2010,7.4,5.3,16.1,44.502295,-73.03972,no,no,no,1,Very Good
Eur,Spain,Burriana,2010,18.165,16.71,8.155,39.892222,-0.065,no,no,no,2,Good
Eur,Italy,Busalla,2010,26.57883333,17.745,48.976,44.572777,8.946389,yes,yes,no,2,Good
Wpr,Republic of Korea,Busan,2010,49.443,24.8868,0.023,35.1749326,129.0631946,no,yes,no,3,Moderate
Eur,Poland,Busko Zdroj,2010,33.45,28.351,22.81687829,50.453655,20.715443,no,no,yes,4,Poor
Wpr,Australia,Busselton,2010,14.167,8.5,22.81687829,-33.6482,115.352,yes,no,yes,1,Very Good
Eur,Italy,Busto Arsizio,2010,31.655,15.48364257,32.251,45.578888,8.834444,no,yes,no,2,Good
Amr,United States of America,Butte Silver Bow MT,2010,29.5,9.7,22.81687829,46.002602,-112.501247,no,no,yes,2,Good
Eur,Romania,Buzau,2010,21.766375,14.873,24.64016667,45.153606,26.819145,yes,no,yes,2,Good
Eur,Poland,Bydgoszcz,2010,28.651,27.75,27.609,53.12250025,18.0008335,no,no,no,4,Poor
Eur,Slovakia,Bystricany,2010,33.533,19.777,22.81687829,48.666946,18.530848,no,no,yes,2,Good
Eur,Poland,Bytom,2010,52.017,42.137,26.7,50.333333,18.896111,yes,yes,no,4,Poor
Eur,Spain,Caceres,2010,16.225,6.5368,15.306,39.472778,-6.360278,no,yes,no,1,Very Good
Eur,France,Cachan,2010,29.1274,17.27896667,36.9,48.799444,2.330556,yes,yes,no,2,Good
Eur,Spain,Cadaques,2010,16.428,7.892,2.46,42.319167,3.315833,no,no,no,1,Very Good
Eur,Switzerland,Cadenazzo,2010,18.851,11.507,21.442,46.160367,8.933942,no,yes,no,2,Good
Amr,United States of America,Cadillac MI,2010,29.59485089,5.9,2.390909091,44.31055542,-84.89186532,yes,no,yes,2,Good
Eur,Spain,Cadiz,2010,35.808,9.187,13.97488889,36.506019,-6.268569,no,yes,yes,2,Good
Eur,France,Caen,2010,24.221,16.303,27.123,49.1854426,-0.376111,no,no,no,2,Good
Eur,Italy,Cagliari,2010,30.447,15.72566667,33.071,39.22625033,9.115023167,no,yes,no,2,Good
Eur,France,Cagnes Sur Mer,2010,25.343,14.627,27.584,43.658336,7.157778,no,yes,no,2,Good
Eur,Italy,Cairo Montenotte,2010,23.37866667,16.40766667,26.542,44.3825,8.280556,yes,yes,no,2,Good
Eur,France,Calais,2010,26.202,18.825,28.995,50.94958967,1.846892167,no,no,no,2,Good
Eur,Romania,Calan,2010,23.376,15.48501003,13.12525,45.734566,22.991819,no,yes,yes,2,Good
Eur,Spain,Calanda,2010,16.477,5.377142857,4.012,40.94768533,-0.272407333,no,yes,no,1,Very Good
Amr,Colombia,Caldas,2010,65.0,23.9294,35.0,6.091617,-75.63489,no,yes,yes,4,Poor
Eur,Italy,Calenzano,2010,34.58,15.66672222,38.087,43.848053,11.184722,no,yes,no,2,Good
Eur,Italy,Calusco D Adda,2010,30.553,26.892,26.387,45.683333,9.466667,no,no,no,4,Poor
Amr,Brazil,Camacari,2010,16.9,15.47930535,11.511,-12.686376,-38.333604,no,yes,no,2,Good
Eur,Spain,Camargo,2010,31.432,9.644142857,21.959,43.420833,-3.841111,no,yes,no,2,Good
Eur,France,Cambrai,2010,23.559,12.8885,23.124,50.175278,3.234167,no,yes,no,2,Good
Eur,Spain,Cambre,2010,29.59485089,10.401,10.899,43.235,-8.317222,yes,no,no,2,Good
Eur,United Kingdom of Great Britain and Northern Ireland,Cambridge,2010,29.59485089,15.47595565,25.734,52.250435,0.2076865,yes,yes,no,2,Good
Eur,Italy,Campi Bisenzio,2010,32.49,15.66672222,29.331,43.822498,11.147223,no,yes,no,2,Good
Eur,Italy,Campi Salentina,2010,29.154,15.327,10.862,40.404446,18.029722,no,no,no,2,Good
Eur,Spain,Campillos,2010,29.59485089,15.47606504,9.377,36.9623,-4.844831,yes,yes,no,2,Good
Amr,Brazil,Campinas,2010,33.0,15.47606504,22.82182877,-22.902202,-47.057021,no,yes,yes,2,Good
Eur,Spain,Campisabalos,2010,11.012,5.656,1.514,41.274167,-3.1425,no,no,no,1,Very Good
Eur,Italy,Campobasso,2010,20.2,10.07625,26.872,41.5581656,14.669778,no,yes,no,2,Good
Amr,Brazil,Campos Dos Goitacazes,2010,22.0,9.58,5.0,-21.75,-41.317,no,yes,no,2,Good
Eur,Turkey,Canakkale,2010,30.334,15.47606504,22.82182877,40.136948,26.405832,no,yes,yes,2,Good
Amr,Brazil,Candeias,2010,18.0,15.47606504,10.002,-12.677217,-38.539136,no,yes,no,2,Good
Eur,Spain,Candelaria,2010,22.643,8.161,20.76,28.38464286,-16.36424614,no,yes,no,2,Good
Eur,Spain,Cangas Del Narcea,2010,20.292,7.174,9.762,43.177778,-6.547222,no,yes,no,2,Good
Eur,Turkey,Cankiri,2010,56.838,19.115,34.87233333,40.59972,33.616943,no,yes,yes,4,Poor
Eur,France,Cannes,2010,27.11,19.919,28.997,43.562497,7.007222,no,no,no,2,Good
Amr,Brazil,Canoas,2010,38.9,15.47606504,15.5,-29.88396,-51.144387,no,yes,yes,2,Good
Amr,United States of America,Canon City CO,2010,14.5,15.47606504,22.82182877,38.43829,-105.24504,no,yes,yes,2,Good
Eur,United Kingdom of Great Britain and Northern Ireland,Canterbury,2010,29.59485089,15.47606504,18.225,51.27399,1.098061,yes,yes,no,2,Good
Eur,France,Canton De Baie Mahault,2010,22.360925,7.827,11.28,16.241111,-61.593075,yes,yes,no,2,Good
Amr,United States of America,Canton Massillon OH,2010,29.59192455,14.1,22.82182877,40.7937603,-81.3835765,yes,no,yes,2,Good
Eur,Italy,Cantu,2010,25.604,19.33555556,49.439,45.727222,9.125834,no,yes,no,2,Good
Eur,Italy,Capannori,2010,26.507,21.77925,32.869,43.840832,10.573889,no,yes,no,3,Moderate
Amr,United States of America,Cape Coral Fort Myers FL,2010,16.4,7.0,22.82182877,26.60201575,-81.87790816,no,no,yes,1,Very Good
Afr,South Africa,Cape Town,2010,31.521,10.61233333,47.8,-33.925285,18.423839,no,yes,no,2,Good
Eur,France,Cappelle La Grande,2010,19.216,18.972,18.752,50.995908,2.365994,yes,no,no,2,Good
Eur,Spain,Caravaca De La Cruz,2010,14.349,15.47390327,7.561,38.114722,-1.868611,yes,yes,no,2,Good
Eur,Spain,Carboneras,2010,20.974,9.28075,13.738,36.99767067,-1.894237,no,yes,no,2,Good
Eur,United Kingdom of Great Britain and Northern Ireland,Cardiff,2010,17.57675,13.8,32.854,51.48178,-3.17625,yes,no,no,2,Good
Eur,Romania,Carei,2010,20.626,15.47390327,14.769,47.689758,22.459068,no,yes,yes,2,Good
Amr,Brazil,Cariacica,2010,45.0,10.015,29.37,-20.341901,-40.400502,no,yes,no,3,Moderate
Eur,France,Carling,2010,25.193,15.47079456,15.41033333,49.165725,6.716886,no,yes,yes,2,Good
Eur,United Kingdom of Great Britain and Northern Ireland,Carlisle,2010,22.467,15.536,32.792,54.894834,-2.945307,no,no,no,2,Good
Amr,United States of America,Carlsbad Artesia NM,2010,29.59192455,15.47079456,4.5,32.38011762,-104.2627263,yes,yes,no,2,Good
Eur,Germany,Carlsfeld,2010,11.834,15.47079456,22.82182877,50.431324,12.611125,no,yes,yes,2,Good
Eur,Italy,Carmagnola,2010,44.288,15.47079456,22.82182877,44.855278,7.723333,no,yes,yes,3,Moderate
Eur,Italy,Carpi,2010,33.142,15.47079456,39.934,44.795,10.883611,no,yes,no,2,Good
Eur,Spain,Carracedelo,2010,16.013,15.47079456,29.508,42.558611,-6.725556,no,yes,no,2,Good
Eur,Italy,Carrara,2010,43.956,15.47079456,34.063,44.0643045,10.087777,no,yes,no,3,Moderate
Eur,Spain,Cartagena,2010,25.31,13.73511111,17.846,37.63333333,-0.984444333,no,yes,no,2,Good
Eur,Italy,Casale Monferrato,2010,38.943,15.47079456,30.678,45.133335,8.433333,no,yes,no,2,Good
Eur,Italy,Casalgrande,2010,31.32,19.9405,38.202,44.588056,10.730278,no,yes,no,2,Good
Eur,Italy,Casamassima,2010,11.821,13.7764,14.583,40.67778,15.254167,no,yes,no,2,Good
Eur,Portugal,Cascais,2010,27.767,15.47332697,38.201,38.421947,-9.251964,no,yes,no,2,Good
Eur,Italy,Cascina,2010,32.44,14.83977778,33.434,43.68264,10.52,no,yes,no,2,Good
Eur,Italy,Caserta,2010,30.862,13.9785,29.217,41.07962933,14.34981467,no,yes,no,2,Good
Eur,Italy,Casirate D Adda,2010,38.285,31.009,34.602,45.497501,9.556389,no,no,no,4,Poor
Eur,Spain,Caspe,2010,29.59192455,15.47296842,9.396,41.228889,-0.031389,yes,yes,no,2,Good
Amr,United States of America,Casper WY,2010,14.3,4.6,9.22,42.85593185,-106.2804741,no,no,yes,1,Very Good
Eur,Italy,Cassano D Adda,2010,39.511,25.85935714,39.511,45.53749967,9.512037,no,yes,no,4,Poor
Eur,Italy,Cassino,2010,31.279,22.74555556,44.807,41.49,13.830556,no,yes,no,3,Moderate
Eur,Italy,Castellarano,2010,30.043,18.43,29.989,44.516111,10.733889,no,yes,no,2,Good
Eur,Spain,Castellet,2010,20.537,13.312125,15.71,41.245,1.617778,yes,yes,no,2,Good
Eur,Italy,Castello Di Godego,2010,29.59192455,15.47761563,21.776,45.7,11.95,yes,yes,no,2,Good
Eur,Spain,Castellon de la plana,2010,19.62,11.075,18.254,39.999127,-0.039761714,no,no,no,2,Good
Eur,Spain,Castelnou,2010,29.59192455,15.47761563,7.921,41.225278,0.356389,yes,yes,no,2,Good
Eur,Ireland,Castlebar,2010,15.476,15.47761563,9.564,53.851109,-9.299723,no,yes,no,2,Good
Eur,France,Castres,2010,20.112,15.47761563,15.935,43.602625,2.240139,no,yes,no,2,Good
Eur,Spain,Castro Urdiales,2010,23.411,8.381857143,16.41,43.382778,-3.221389,no,yes,no,2,Good
Amr,Brazil,Catanduva,2010,40.0,15.47761563,16.70575,-21.140959,-48.982405,no,yes,yes,2,Good
Eur,Italy,Catania,2010,23.585,12.706,31.20816667,37.484165,15.046667,no,yes,yes,2,Good
Eur,Spain,Caudete De Las Fuentes,2010,15.166,10.449,8.99,39.558611,-1.281389,no,no,no,2,Good
Eur,Italy,Cavaso Del Tomba,2010,29.59192455,15.47761563,12.963,45.889167,11.900556,yes,yes,no,2,Good
Eur,France,Cayenne,2010,26.37844444,11.2556,8.293,4.934722,-52.330275,yes,yes,no,2,Good
Eur,Italy,Ceccano,2010,40.98411111,19.8,33.097,41.57,13.337222,yes,yes,no,3,Moderate
Amr,United States of America,Cedar Rapids IA,2010,20.58,11.1,22.82182877,41.97677,-91.68766,yes,no,yes,2,Good
Eur,Spain,Cee,2010,19.052,8.976,7.898888889,42.948056,-9.157778,no,yes,yes,1,Very Good
Eur,Slovenia,Celje,2010,32.154,16.825,26.189,46.235001,15.267777,no,yes,no,2,Good
Eur,Italy,Cengio,2010,23.37866667,16.40766667,17.097,44.390556,8.201388,yes,yes,no,2,Good
Eur,Italy,Cento,2010,30.287,15.48056975,28.831,44.738335,11.299723,no,yes,no,2,Good
Amr,Peru,Cercado De Lima,2010,55.825,28.465,22.715,-12.047297,-77.026218,yes,yes,yes,4,Poor
Eur,Spain,Cerceda,2010,14.075,9.767375,9.221,43.185833,-8.468611,no,yes,no,1,Very Good
Eur,Spain,Cercs,2010,18.18225,10.982,12.552,42.1720835,1.8581945,yes,yes,no,2,Good
Eur,Italy,Ceresole Reale,2010,7.145,15.47483603,5.182777778,45.43,7.245278,no,yes,yes,2,Good
Eur,France,Cergy,2010,24.229,15.47483603,20.926,49.046389,2.043056,no,yes,no,2,Good
Eur,France,Cerise,2010,21.398,15.47483603,15.265,48.445553,0.110833,no,yes,no,2,Good
Eur,Spain,Cerollera,2010,29.58481853,15.47483603,1.617,40.841944,-0.0575,yes,yes,no,2,Good
Amr,Chile,Cerrillos,2010,63.907,29.371,24.914,-33.4929,-70.7193,no,no,no,4,Poor
Amr,Chile,Cerro Navia,2010,68.119,29.429,20.05,-33.4331,-70.7321,no,no,no,4,Poor
Eur,Italy,Cervia,2010,25.558,15.47483603,17.266,44.28389,12.332222,no,yes,no,2,Good
Eur,Spain,Cervo,2010,18.155,9.384125,22.82182877,43.684444,-7.431944,no,yes,yes,1,Very Good
Eur,Italy,Cesena,2010,27.249,15.47483603,27.306,44.139167,12.239167,no,yes,no,2,Good
Eur,Czechia,Ceska Lipa,2010,26.003,15.47483603,22.82182877,50.698044,14.537345,no,yes,yes,2,Good
Eur,Czechia,Ceske Budejovice,2010,23.157,19.084,16.988,48.9762645,14.46674125,no,no,no,2,Good
Eur,Czechia,Cesky Tesin,2010,53.584,24.03271429,27.198,49.748959,18.609726,no,yes,no,4,Poor
Eur,Spain,Cesuras,2010,15.056,15.47483603,9.807,43.173889,-8.188333,no,yes,no,2,Good
Eur,France,Chalampe,2010,20.796,10.092,28.87,47.8203,7.538278,yes,yes,no,2,Good
Eur,France,Chalon Sur Saone,2010,22.767,11.26511111,30.885,46.7898625,4.8506945,no,yes,no,2,Good
Eur,France,Chalons En Champagne,2010,23.37,15.47182885,19.141,48.962222,4.36,no,yes,no,2,Good
Eur,France,Chamalieres,2010,19.763,15.361,34.496,45.774778,3.062972,no,yes,no,2,Good
Eur,France,Chambery,2010,21.685,17.489,25.03,45.5775,5.9244442,no,no,no,2,Good
Eur,France,Chamonix Mont Blanc,2010,23.384,15.47176701,39.15,45.914861,6.8579165,no,yes,no,2,Good
Eur,France,Champ Sur Drac,2010,32.297,21.2015,19.942,45.079539,5.728653,yes,yes,no,3,Moderate
Eur,France,Champagnier,2010,32.297,21.2015,17.531,45.109267,5.726994,yes,yes,no,3,Moderate
Eur,France,Champforgeuil,2010,22.381,11.26511111,28.54,46.821108,4.835,no,yes,no,2,Good
Eur,France,Champigny Sur Marne,2010,27.4775,18.10848611,33.722,48.816389,2.5175,yes,yes,no,2,Good
Eur,Portugal,Chamusca,2010,16.576,9.204,6.926,39.211391,-8.281958,no,no,no,1,Very Good
Eur,France,Charavines,2010,29.58261661,15.47727036,10.56,45.4276,5.51795,yes,yes,no,2,Good
Eur,Belgium,Charleroi,2010,24.182,16.385,31.071,50.40906336,4.432343273,no,no,no,2,Good
Amr,United States of America,Charleston North Charleston SC,2010,17.4,9.35,8.55,32.8986375,-79.91460725,no,no,no,1,Very Good
Amr,United States of America,Charleston WV,2010,29.58261661,13.0,22.82182877,38.366183,-81.693717,yes,no,yes,2,Good
Eur,France,Charleville Mezieres,2010,25.435,15.47727036,19.862,49.745278,4.719167,no,yes,no,2,Good
Amr,United States of America,Charlotte Concord Gastonia NC SC,2010,29.58261661,11.5,22.1,35.2401,-80.785683,yes,no,no,2,Good
Amr,United States of America,Charlottesville VA,2010,29.58261661,9.4,22.82182877,38.07657,-78.50397,yes,no,yes,2,Good
Eur,France,Chartres,2010,15.88333333,10.572,18.318,48.444836,1.509281,yes,yes,no,2,Good
Eur,France,Chartres De Bretagne,2010,23.2,10.55033333,19.212,48.046664,-1.706667,yes,yes,no,2,Good
Eur,France,Chasseneuil Du Poitou,2010,21.598,17.433,12.022,46.655333,0.376236,no,yes,no,2,Good
Eur,France,Chateauneuf Les Martigues,2010,33.378,11.5865,19.997,43.399583,5.114722,no,yes,yes,2,Good
Eur,France,Chateauroux,2010,21.113,7.685,13.162,46.798333,1.693819,no,yes,no,2,Good
Eur,Belgium,Chatelet,2010,31.755,13.953,31.071,50.416992,4.519866,no,yes,yes,2,Good
Eur,France,Chatenois,2010,14.416,15.47346238,22.82516312,47.14725,5.556117,no,yes,yes,2,Good
Amr,United States of America,Chattanooga TN GA,2010,29.58005331,10.8,22.82516312,35.00803267,-85.27894967,yes,no,yes,2,Good
Eur,Switzerland,Chaumont,2010,8.54,9.3,6.814,47.049469,6.979203,no,yes,no,1,Very Good
Eur,France,Chauny,2010,24.661,15.47004029,20.669,49.613108,3.223342,no,yes,no,2,Good
Eur,Czechia,Cheb,2010,21.89,15.47004029,17.222,50.065862,12.363442,no,yes,no,2,Good
Eur,Poland,Chelm,2010,31.32,23.962,22.82516312,51.130554,23.514723,no,no,yes,3,Moderate
Eur,Germany,Chemnitz,2010,25.415,19.557,35.752,50.84004771,12.90935314,no,no,no,2,Good
Eur,United Kingdom of Great Britain and Northern Ireland,Chepstow,2010,17.72757143,11.67828571,38.96,51.638094,-2.678731,yes,yes,no,2,Good
Eur,France,Cherbourg Octeville,2010,17.55,15.47004029,18.134,49.636389,-1.626667,no,yes,no,2,Good
Eur,United Kingdom of Great Britain and Northern Ireland,Chesterfield,2010,19.87,13.262,21.175,53.2310386,-1.4429442,no,no,no,2,Good
Amr,United States of America,Cheyenne WY,2010,14.3,4.2,6.863636364,41.15953648,-104.7982868,no,no,yes,1,Very Good
Eur,Italy,Chiampo,2010,37.336,29.257,26.429,45.532223,11.525,yes,yes,no,4,Poor
Eur,Italy,Chiaravalle,2010,34.673,17.483,34.408,43.59923525,13.33687475,no,no,no,2,Good
Eur,Italy,Chiavenna,2010,29.58316564,15.47766582,20.448,46.32,9.395833,yes,yes,no,2,Good
Wpr,Japan,Chiba,2010,29.58316564,11.0,22.82516312,35.6089318,140.1246365,yes,no,yes,2,Good
Amr,United States of America,Chicago Naperville Elgin IL IN WI,2010,22.757,13.1,35.35,41.79641431,-87.55115587,no,no,no,2,Good
Amr,United States of America,Chico CA,2010,29.58316564,15.47766582,12.55,39.76168,-121.84047,yes,yes,yes,2,Good
Eur,Italy,Chieri,2010,28.006,23.02011111,38.625,45.017223,7.815834,yes,yes,no,3,Moderate
Eur,Italy,Chioggia,2010,29.447,15.47766582,23.532,45.2,12.279167,no,yes,no,2,Good
Eur,Italy,Chitignano,2010,10.168,15.47766582,6.229,43.660278,11.901667,no,yes,no,2,Good
Sear,Bangladesh,Chittagong,2010,155.4,66.7,33.745,22.36183357,91.81300354,no,no,yes,6,Extremely Poor
Eur,France,Cholet,2010,21.006,15.47766582,18.081,47.054444,-0.886111,no,yes,no,2,Good
Eur,Czechia,Chomutov,2010,30.645,15.424,23.78,50.467525,13.412697,no,yes,no,2,Good
Eur,Poland,Chorzow,2010,53.546,42.137,29.629,50.254167,18.936944,no,yes,yes,4,Poor
Wpr,Republic of Korea,Chungcheongbuk Do,2010,60.784,29.1704,0.021,36.78452562,127.6857284,no,yes,no,4,Poor
Wpr,Republic of Korea,Chungcheongnam Do,2010,48.559,26.0334,0.016,45.770005,117.8141922,no,yes,no,4,Poor
Eur,Czechia,Chystovice,2010,19.421,15.306,9.464,49.573395,15.080277,no,yes,no,2,Good
Eur,Italy,Ciampino,2010,32.833,15.49232459,36.85,41.797778,12.606944,no,yes,no,2,Good
Eur,Poland,Ciechanow,2010,38.726,15.49232459,22.8279077,52.877836,20.614142,no,yes,yes,2,Good
Eur,Poland,Cieszyn,2010,32.26328571,30.08535714,20.168,49.738056,18.639166,yes,yes,no,4,Poor
Amr,United States of America,Cincinnati OH KY IN,2010,25.3,13.45,18.0,39.25241738,-84.46825662,no,no,no,2,Good
Eur,Italy,Cinto Euganeo,2010,27.992,19.4395,17.393,45.290001,11.643055,no,yes,no,2,Good
Eur,Italy,Citta Sant Angelo,2010,26.006,15.541625,52.89,42.521528,14.138447,no,yes,no,2,Good
Eur,Spain,Ciudad Real,2010,18.457,10.456,12.065,38.993889,-3.937778,no,yes,no,2,Good
Eur,Spain,Ciutadella de Menorca,2010,24.766,15.5025386,6.196,40.010556,3.8575,no,yes,no,2,Good
Eur,Italy,Civita Castellana,2010,21.635,15.5025386,25.069,42.289167,12.415,no,yes,no,2,Good
Eur,Italy,Civitanova Marche,2010,17.196,11.672,11.251,43.335556,13.674723,no,no,no,2,Good
Eur,Italy,Civitavecchia,2010,27.699,8.6068,36.416,42.091667,11.8025,no,yes,no,2,Good
Amr,United States of America,Claremont Lebanon NH VT,2010,29.58316564,6.6,22.8279077,43.629605,-72.309499,yes,no,yes,2,Good
Amr,United States of America,Clarksburg WV,2010,29.58316564,12.0,22.8279077,39.278117,-80.34225,yes,no,yes,2,Good
Amr,United States of America,Clarksville TN KY,2010,29.58316564,11.2,22.8279077,36.91171,-87.323337,yes,no,yes,2,Good
Eur,Italy,Claut,2010,29.58316564,15.5025386,8.063,46.263056,12.468333,yes,yes,no,2,Good
Eur,France,Clermont Ferrand,2010,21.892,15.361,28.607,45.78079017,3.101990583,no,no,no,2,Good
Amr,United States of America,Cleveland Elyria OH,2010,22.95,12.15,29.7,41.45437071,-81.70602443,no,no,no,2,Good
Amr,United States of America,Clinton IA,2010,29.58316564,12.3,22.8279077,41.84914081,-90.19477816,yes,no,yes,2,Good
Eur,Romania,Cluj Napoca,2010,33.213,20.6,27.884,46.77287067,23.58750867,no,no,no,3,Moderate
Amr,Mexico,Coacalco De Berriozabal,2010,67.917,22.021,23.787,19.658223,-99.09659,no,yes,no,4,Poor
Eur,Germany,Coburg,2010,21.428,11.64011111,31.072,50.260578,10.959311,no,yes,no,2,Good
Eur,Italy,Codogno,2010,40.464,19.51094153,38.909,45.158611,9.698334,no,yes,no,3,Moderate
Eur,France,Cognac,2010,22.765,15.50830675,14.948,45.694725,-0.323361,no,yes,no,2,Good
Eur,Italy,Cogoleto,2010,29.58316564,15.50830675,15.897,44.391392,8.643055,yes,yes,no,2,Good
Eur,Portugal,Coimbra,2010,26.234,15.50830675,24.509,40.1695485,-8.338614,no,yes,no,2,Good
Eur,Italy,Colbordolo,2010,25.962,15.50830675,20.065,43.830276,12.742778,no,yes,no,2,Good
Eur,Italy,Colico Piano,2010,29.58316564,15.50830675,20.586,46.137222,9.385,yes,yes,no,2,Good
Eur,Spain,Collado Villalba,2010,30.202,13.246,34.229,40.633889,-4.013333,no,no,no,2,Good
Eur,Italy,Colleferro,2010,34.806,20.46066667,37.244,41.726945,13.00777733,no,yes,no,3,Moderate
Wpr,Australia,Collie,2010,22.8,15.50830675,22.8279077,-33.3599,116.1468,no,yes,yes,2,Good
Eur,Germany,Collm,2010,17.844,13.685,12.627,51.303772,13.009405,no,no,no,2,Good
Eur,France,Colmar,2010,25.151,15.50830675,30.413,48.075,7.356529,no,yes,no,2,Good
Eur,Spain,Colmenar Viejo,2010,22.582,15.50830675,30.855,40.666389,-3.772222,no,yes,no,2,Good
Amr,United States of America,Colorado Springs CO,2010,19.5,6.2,22.8279077,38.848014,-104.828564,no,no,yes,1,Very Good
Eur,Italy,Colorno,2010,26.75,20.251,26.166,44.926113,10.370833,no,yes,no,3,Moderate
Amr,United States of America,Columbia SC,2010,16.3,11.15,10.0,34.0613457,-81.01296542,no,no,no,2,Good
Amr,United States of America,Columbus GA AL,2010,29.58316564,13.233,22.8279077,32.47839067,-84.95171159,yes,no,yes,2,Good
Amr,United States of America,Columbus OH,2010,29.58316564,11.9,22.8279077,40.0877,-82.959773,yes,no,yes,2,Good
Amr,Peru,Comas,2010,82.64,34.55,24.73,-11.915834,-77.055332,no,no,no,4,Poor
Eur,Italy,Como,2010,31.095,22.44711111,54.947,45.804443,9.083611,no,yes,no,3,Moderate
Amr,Chile,Comuna De Coyhaique,2010,79.781,59.54933333,6.487,-45.5799,-72.0611,no,yes,yes,5,Very Poor
Eur,Italy,Concordia Sagittaria,2010,31.826,15.51089273,16.944,45.694444,12.787222,no,yes,no,2,Good
Eur,Italy,Conegliano,2010,27.269,20.28244444,27.871,45.890556,12.308056,no,yes,no,3,Moderate
Eur,Spain,Congosto,2010,11.393,15.51089273,8.26,42.625556,-6.520833,no,yes,no,2,Good
Eur,Romania,Constanta,2010,30.996,15.355,27.295,44.16791667,28.63654567,no,no,no,2,Good
Eur,Spain,Constanti,2010,20.187875,11.146,16.752,41.156111,1.218889,yes,yes,no,2,Good
Eur,France,Contes,2010,32.398,15.51089273,20.719,43.793331,7.331392,no,yes,no,2,Good
Eur,Denmark,Copenhagen,2010,19.381,13.494,37.329,55.69177163,12.5608045,no,no,no,2,Good
Eur,Romania,Copsa Mica,2010,28.28,15.51089273,22.8279077,46.113052,24.229443,no,yes,yes,2,Good
Eur,Spain,Cordoba,2010,30.257,15.29785714,19.586,37.8931838,-4.7799342,no,yes,no,2,Good
Eur,Ireland,Cork,2010,17.835,7.094,34.166,51.8909725,-8.465833,no,yes,no,1,Very Good
Eur,Italy,Cormano,2010,38.90966667,29.04,60.919,45.541668,9.172222,yes,yes,no,4,Poor
Eur,Italy,Cornale,2010,31.479,18.579,34.71,45.040833,8.915,yes,no,no,2,Good
Eur,Spain,Cornella De Llobregat,2010,26.6166875,17.45271429,38.824,41.358056,2.0775,yes,yes,no,2,Good
Amr,United States of America,Corning NY,2010,29.58645877,7.2,22.8279077,42.09142,-77.20978,yes,no,yes,2,Good
Amr,United States of America,Corpus Christi TX,2010,20.1,10.3,22.8279077,27.808153,-97.448628,no,no,yes,2,Good
Eur,Spain,Corrales De Buelna,2010,27.771,11.51985714,17.659,43.264444,-4.062778,no,yes,no,2,Good
Eur,Belgium,Corroy Le Grand,2010,20.893,15.214,23.002,50.655992,4.667017,no,no,no,2,Good
Amr,United States of America,Corsicana TX,2010,29.58645877,15.51712842,8.2,32.031934,-96.399141,yes,yes,no,2,Good
Eur,Italy,Corte De Cortesi Con Cignone,2010,29.58645877,15.51712842,25.259,45.279167,10.007222,yes,yes,no,2,Good
Eur,Italy,Cortina Sulla Strada Del Vino,2010,18.98,17.28,33.158,46.267223,11.227221,no,no,no,2,Good
Eur,Turkey,Corum,2010,112.336,30.8645,57.42233333,40.556942,34.956944,no,yes,yes,5,Very Poor
Eur,Spain,Coruna,2010,26.716,9.767375,21.816,43.375139,-8.413889,no,yes,no,2,Good
Eur,Italy,Cosenza,2010,20.78757143,12.83014286,27.571,39.314167,16.245556,yes,yes,no,2,Good
Eur,Spain,Coslada,2010,29.619,13.6635,46.548,40.43,-3.545833,no,yes,no,2,Good
Eur,Italy,Cossato,2010,27.957,12.22411111,22.549,45.56889,8.1875,no,yes,no,2,Good
Eur,Germany,Cottbus,2010,29.003,23.276,28.988,51.75014438,14.33209263,no,no,no,3,Moderate
Eur,Italy,Courmayeur,2010,21.858,15.51122571,37.657,45.791943,6.973333,no,yes,no,2,Good
Eur,United Kingdom of Great Britain and Northern Ireland,Coventry,2010,16.07275,12.277,21.242,52.394399,-1.519612,yes,no,no,2,Good
Eur,Romania,Craiova,2010,31.52575,20.001,25.093,44.32147967,23.793805,yes,yes,no,3,Moderate
Eur,France,Creil,2010,24.527,18.054,23.764,49.259553,2.474397,no,no,no,2,Good
Eur,Italy,Crema,2010,29.821,15.46188306,29.476,45.367222,9.705,no,yes,no,2,Good
Eur,Italy,Cremona,2010,35.634,25.73433333,33.626,45.13907467,10.03611167,no,yes,no,4,Poor
Eur,France,Crolles,2010,23.287,10.674,19.675,45.279908,5.882389,no,yes,no,2,Good
Eur,Italy,Crotone,2010,33.08,15.51119901,31.141,39.081667,17.114167,no,yes,no,2,Good
Eur,Spain,Cuadros,2010,13.004,9.5433,11.938,42.715556,-5.638889,no,yes,no,1,Very Good
Amr,Brazil,Cubatao,2010,59.667,15.50797312,30.333,-23.85323167,-46.39166233,no,yes,no,4,Poor
Eur,Spain,Cubelles,2010,20.5865,13.312125,16.774,41.202222,1.672222,yes,yes,no,2,Good
Amr,Ecuador,Cuenca,2010,46.247,9.1375,17.445,-2.898754667,-79.00665533,no,yes,no,3,Moderate
Eur,Spain,Cuenca,2010,25.294,9.1375,23.189,40.061944,-2.129444,no,yes,no,2,Good
Eur,Spain,Cuevas Del Almanzora,2010,29.929,15.50678745,11.386,37.25405633,-1.778103,no,yes,no,2,Good
Amr,United States of America,Cullowhee NC,2010,29.58287455,10.2,22.8279077,35.46676663,-83.27792806,yes,no,yes,2,Good
Eur,Italy,Cuneo,2010,26.557,15.51233333,34.272,44.381664,7.538055,no,yes,no,2,Good
Amr,Brazil,Curitiba,2010,21.8,15.50678745,31.7,-25.4803095,-49.2482485,no,yes,no,2,Good
Eur,Portugal,Custoias,2010,27.585,8.4445,9.41,41.200832,-8.645011,no,yes,no,2,Good
Eur,Germany,Cuxhaven,2010,19.087,15.50298029,12.122,53.83017,8.80122,no,yes,no,2,Good
Eur,United Kingdom of Great Britain and Northern Ireland,Cwmbran,2010,15.300375,15.188,16.011,51.6538,-3.006953,yes,yes,no,2,Good
Eur,Poland,Czerniawa,2010,18.591,15.50281067,7.284,50.912475,15.312167,no,yes,no,2,Good
Eur,Poland,Czestochowa,2010,38.951,40.94,27.613,50.82445275,19.12099125,no,no,no,4,Poor
Eur,Poland,Dabrowa Gornicza,2010,48.777,15.50281067,28.672,50.328888,19.230833,no,yes,no,3,Moderate
Wpr,Republic of Korea,Daegu,2010,52.156,24.5982,0.027,35.85511218,128.5795882,no,yes,no,4,Poor
Wpr,Republic of Korea,Daejeon,2010,44.841,23.6468,0.023,36.35407469,127.3992296,no,yes,no,3,Moderate
Eur,France,Daix,2010,22.361,13.271,14.389,47.345553,5.002222,no,yes,no,2,Good
Eur,Austria,Dalaas,2010,29.57719111,15.50161077,29.069,47.127777,10.046956,yes,yes,no,2,Good
Amr,United States of America,Dallas Fort Worth Arlington TX,2010,29.57719111,10.14,13.61,32.76847685,-96.901244,yes,no,no,2,Good
Eur,France,Damparis,2010,29.57719111,15.50161077,18.187,47.065639,5.415028,yes,yes,no,2,Good
Amr,United States of America,Daphne Fairhope Foley AL,2010,29.57719111,10.2,22.8279077,30.497478,-87.880258,yes,no,yes,2,Good
Eur,Italy,Darfo Boario Terme,2010,38.652,31.972,37.524,45.873886,10.177501,no,no,yes,4,Poor
Eur,Germany,Darmstadt,2010,23.259,8.885,46.322,49.870878,8.6591815,no,yes,no,2,Good
Eur,Germany,Datteln,2010,25.335,13.24188889,21.707,51.641384,7.331406,no,yes,no,2,Good
Amr,United States of America,Davenport Moline Rock Island IA IL,2010,32.05,12.2,22.8279077,41.50310779,-90.63336873,no,no,yes,2,Good
Eur,France,Dax,2010,21.186,9.954285714,16.668,43.704722,-1.038611,no,yes,no,2,Good
Amr,United States of America,Dayton OH,2010,29.57719111,12.0,22.8279077,39.83562,-84.720524,yes,no,yes,2,Good
Eur,Hungary,Debrecen,2010,26.314,22.1475,18.803,47.513332,21.624445,no,yes,no,3,Moderate
Amr,United States of America,Decatur AL,2010,29.57719111,11.2,22.8279077,34.530717,-86.967536,yes,no,yes,2,Good
Eur,Czechia,Decin,2010,34.475,21.26842857,24.382,50.774147,14.218794,no,yes,no,3,Moderate
Sear,India,Delhi,2010,273.5,152.603,66.10175,28.61765366,77.21248016,no,no,yes,6,Extremely Poor
Eur,Germany,Delitzsch,2010,24.852,15.50161077,21.612,51.530235,12.337597,no,yes,no,2,Good
Amr,United States of America,Deltona Daytona Beach Ormond Beach FL,2010,15.0,7.5,22.8279077,29.206667,-81.0525,no,no,yes,1,Very Good
Eur,Netherlands (Kingdom of the),Den Haag,2010,28.146,16.611,37.959,52.07064833,4.310055,no,no,no,2,Good
Eur,France,Denain,2010,25.857,14.43777778,15.0442,50.3275,3.4,no,yes,yes,2,Good
Eur,Turkey,Denizli,2010,98.433,15.50104005,22.8279077,37.7775,29.0665285,no,yes,yes,4,Poor
Amr,United States of America,Denver Aurora Lakewood CO,2010,26.4,6.7,41.1,39.701536,-105.0065058,no,no,no,2,Good
Eur,France,Deols,2010,21.399,7.685,14.495,46.825175,1.704842,no,yes,no,2,Good
Eur,Italy,Dernice,2010,15.066,10.27477778,9.704,44.764999,9.053333,no,yes,no,2,Good
Amr,United States of America,Des Moines West Des Moines IA,2010,20.9,10.2,16.7,41.60333784,-93.695509,no,no,no,2,Good
Eur,Czechia,Desna,2010,14.671,15.50281067,6.501,50.789642,15.319683,no,yes,no,2,Good
Eur,Germany,Dessau,2010,24.261,15.49685458,26.066,51.84058,12.244764,no,yes,no,2,Good
Eur,Belgium,Dessel,2010,23.289,12.530875,22.659,51.234192,5.162686,no,yes,no,2,Good
Eur,Belgium,Destelbergen,2010,22.6,13.88014286,28.267,51.061813,3.774011,no,yes,no,2,Good
Amr,United States of America,Detroit Warren Dearborn MI,2010,18.733,9.9,30.37,42.41059234,-83.06594013,no,no,yes,1,Very Good
Eur,Austria,Deutschlandsberg,2010,23.037,15.49685458,16.343,46.813889,15.212789,no,yes,no,2,Good
Eur,Romania,Deva,2010,19.50433333,15.49685458,11.522,45.895504,22.899347,yes,yes,no,2,Good
Eur,Bulgaria,Devnya,2010,23.307,15.49685458,19.87,43.223044,27.587239,no,yes,no,2,Good
Sear,Bangladesh,Dhaka,2010,127.5,64.1,50.8306,23.75696373,90.38722229,no,no,yes,5,Very Poor
Eur,Poland,Diabla Gora,2010,18.753,15.173,3.606,54.125275,22.038055,no,no,no,2,Good
Amr,Brazil,Diadema,2010,36.0,17.77766667,40.889,-23.685527,-46.611323,no,yes,yes,2,Good
Amr,Brazil,Dias D Avila,2010,23.6,15.47930535,10.084,-12.6228205,-38.350238,no,yes,no,2,Good
Amr,United States of America,Dickinson ND,2010,29.57719111,4.7,22.83513503,46.8943,-103.37853,yes,no,yes,2,Good
Eur,United Kingdom of Great Britain and Northern Ireland,Didcot,2010,13.692,9.462,11.94,51.571078,-1.325286,no,no,no,1,Very Good
Eur,France,Dieme,2010,29.57719111,15.49806294,5.814,45.961411,4.465711,yes,yes,no,2,Good
Eur,Belgium,Diepenbeek,2010,26.262,20.524,26.127,50.897484,5.416908,yes,yes,no,3,Moderate
Eur,France,Dieulefit,2010,17.553,13.941,3.901,44.520744,5.089872,no,yes,no,2,Good
Eur,France,Dieuze,2010,29.57719111,15.50074344,14.814,48.814944,6.721111,yes,yes,no,2,Good
Eur,France,Dijon,2010,21.932,13.271,28.218,47.32146814,5.054563286,no,no,no,2,Good
Eur,Germany,Dillingen,2010,20.168,15.50074344,20.734,49.357861,6.733539,no,yes,no,2,Good
Eur,Bulgaria,Dimitrovgrad,2010,49.119,15.50074344,17.19,42.056383,25.59345,no,yes,no,3,Moderate
Eur,Germany,Dinslaken,2010,27.493,23.894,38.181,51.564751,6.740661,no,yes,no,3,Moderate
Eur,France,Distroff,2010,24.722,22.355,16.391,49.332497,6.271664,yes,yes,no,3,Moderate
Eur,Turkey,Diyarbakir,2010,98.658,15.50885382,22.83513503,37.915558,40.224724,no,yes,yes,4,Poor
Eur,Bulgaria,Dobrich,2010,50.625,15.50885382,22.83513503,43.571594,27.832358,no,yes,yes,4,Poor
Amr,United States of America,Dodge City KS,2010,16.9,15.50885382,22.83513503,37.775303,-100.03544,no,yes,yes,2,Good
Eur,Czechia,Doksany,2010,26.83,21.517,22.83513503,50.458851,14.170161,no,no,yes,3,Moderate
Eur,France,Dole,2010,28.293,15.48753658,19.672,47.096722,5.496389,no,yes,no,2,Good
Eur,Czechia,Dolni Lutyne,2010,65.998,50.21,20.461,49.924683,18.422871,no,no,no,5,Very Poor
Eur,Czechia,Dolni Studenky,2010,28.463,18.22716667,22.83513503,49.931965,16.960773,no,yes,yes,2,Good
Eur,France,Donges,2010,19.353,9.111,12.328,47.3198185,-2.0704725,no,yes,no,1,Very Good
Eur,Italy,Donnas,2010,16.568,15.50884251,23.052,45.5975,7.760278,yes,yes,no,2,Good
Eur,Spain,Donostia,2010,23.118,9.13,30.28,43.31166667,-1.985277667,no,yes,no,2,Good
Eur,Netherlands (Kingdom of the),Dordrecht,2010,24.969,15.5054603,25.741,51.805278,4.668911,no,yes,no,2,Good
Eur,Austria,Dornbirn,2010,21.638,9.952625,34.545,47.410835,9.744175,no,yes,no,2,Good
Eur,Germany,Dornbock,2010,23.914,20.413,11.386,51.83728,11.891525,no,no,no,3,Moderate
Eur,Germany,Dortmund,2010,29.122,19.813,47.686,51.52816329,7.466897143,no,no,no,2,Good
Eur,Spain,Dos Hermanas,2010,27.158,15.87575098,18.546,37.284489,-5.913839,yes,yes,no,2,Good
Amr,United States of America,Dothan AL,2010,29.57430902,12.1,22.83513503,31.224783,-85.390789,yes,no,yes,2,Good
Eur,France,Douai,2010,26.983,23.538,25.255,50.366664,3.082778,no,no,no,3,Moderate
Amr,United States of America,Dover DE,2010,29.57430902,9.5,22.83513503,39.070836,-75.537428,yes,no,yes,2,Good
Eur,Norway,Drammen,2010,21.304,7.847,45.225,59.733334,10.211678,no,yes,no,2,Good
Eur,Germany,Dreissigacker,2010,16.364,15.50565643,12.998,50.561752,10.3753,no,yes,no,2,Good
Eur,Germany,Dresden,2010,27.928,19.313,37.567,51.04301873,13.73478527,no,no,no,2,Good
Eur,France,Dreux,2010,21.293,7.218,14.873,48.731389,1.363889,no,yes,no,2,Good
Eur,Romania,Drobeta Turnu Severin,2010,26.21071429,21.926,19.07966667,44.627495,22.694174,yes,no,yes,3,Moderate
Eur,Italy,Druento,2010,26.508,15.50565643,16.129,45.175556,7.56,no,yes,no,2,Good
Eur,Ireland,Dublin,2010,15.81,11.164,28.889,53.3347634,-6.263646733,no,no,no,2,Good
Eur,Germany,Duderstadt,2010,19.201,15.50565643,12.364,51.50758,10.238539,no,yes,no,2,Good
Eur,Germany,Duisburg,2010,30.311,23.894,36.023,51.47236691,6.751407,no,no,no,3,Moderate
Eur,Czechia,Dukovany,2010,20.051,15.50565643,22.83513503,49.095581,16.13446,no,yes,yes,2,Good
Amr,United States of America,Duluth MN WI,2010,20.2,5.3,22.83513503,46.95920304,-92.23323314,no,no,yes,2,Good
Eur,United Kingdom of Great Britain and Northern Ireland,Dumfries,2010,29.57430902,15.50565643,39.94,55.070033,-3.614233,yes,yes,no,2,Good
Eur,Hungary,Dunaujvaros,2010,25.841,16.30075,18.102,46.976112,18.936113,no,yes,no,2,Good
Eur,France,Dunkerque,2010,25.284,16.542,19.099,51.0352765,2.3369445,no,no,no,2,Good
Eur,Germany,Dunzweiler,2010,14.716,15.50565643,11.907,49.423138,7.293522,no,yes,no,2,Good
Amr,Brazil,Duque De Caxias,2010,41.0,20.56833333,23.66533333,-22.70676033,-43.30343667,no,yes,yes,3,Moderate
Eur,Spain,Durango,2010,19.82,9.785875,31.103,43.172222,-2.635833,no,yes,no,1,Very Good
Amr,United States of America,Durango CO,2010,29.57430902,4.3,9.033,37.18108333,-107.6610053,yes,no,no,2,Good
Amr,United States of America,Durham Chapel Hill NC,2010,29.57430902,10.2,22.83513503,36.032955,-78.904037,yes,no,yes,2,Good
Eur,Germany,Dusseldorf,2010,31.723,17.793,48.691,51.23374171,6.753889143,no,no,no,2,Good
Eur,Turkey,Duzce,2010,81.502,38.33366667,21.79633333,40.845554,31.148056,no,yes,yes,4,Poor
Eur,Poland,Dzialoszyn,2010,30.537,11.29514286,12.824,50.972169,14.941297,no,yes,no,2,Good
Eur,Poland,Dzierzoniow,2010,30.715375,15.50343452,19.71,50.732817,16.64805,yes,yes,no,2,Good
Eur,United Kingdom of Great Britain and Northern Ireland,Eastbourne,2010,17.99533333,13.414,11.46225,50.805779,0.271611,yes,no,yes,2,Good
Amr,United States of America,Eau Claire WI,2010,29.57430902,7.57,22.83513503,44.76249,-91.41445,yes,yes,yes,2,Good
Eur,Austria,Ebenthal,2010,25.507,18.123,19.607,46.608334,14.398611,no,yes,no,2,Good
Eur,Germany,Eberswalde,2010,31.396,22.407,27.621,52.832466,13.822211,no,no,no,3,Moderate
Amr,Mexico,Ecatepec De Morelos,2010,71.178,22.021,28.72,19.5294815,-99.056362,no,no,no,4,Poor
Eur,Greece,Echedoro,2010,29.57430902,15.50481542,18.476,40.657845,22.802366,yes,yes,no,2,Good
Eur,France,Echirolles,2010,36.18,22.924,49.087,45.158364,5.703764,no,no,no,3,Moderate
Eur,Germany,Edertal,2010,14.897,15.50481542,7.948,51.154842,9.031753,no,yes,no,2,Good
Eur,United Kingdom of Great Britain and Northern Ireland,Edinburgh,2010,14.213,9.488,27.358,55.96247725,-3.31434775,no,no,no,1,Very Good
Eur,Turkey,Edirne,2010,64.097,19.40266667,12.17533333,41.65889,26.585278,no,yes,yes,4,Poor
Eur,Germany,Eggenstein Leopoldshafen,2010,19.997,8.973,24.739,49.07655,8.40666,no,yes,no,1,Very Good
Eur,Italy,Egna,2010,19.871,16.352,44.803,46.330833,11.275277,no,no,no,2,Good
Eur,Netherlands (Kingdom of the),Eibergen,2010,27.022,15.50481542,17.317,52.0925,6.605839,no,yes,no,2,Good
Eur,Netherlands (Kingdom of the),Eindhoven,2010,27.032,16.977,36.74,51.44083467,5.431672333,no,no,no,2,Good
Eur,Germany,Eisenach,2010,23.479,15.50481542,13.199,50.858589,10.47386967,no,yes,no,2,Good
Eur,Germany,Eisenhuttenstadt,2010,26.712,22.231,14.06,52.146267,14.638166,no,no,no,3,Moderate
Eur,Austria,Eisenstadt,2010,25.542,13.74733333,20.133,47.84,16.526674,no,yes,no,2,Good
Eur,Spain,Eivissa,2010,19.014,15.50481542,11.364,38.913889,1.425185,no,yes,no,2,Good
Amr,Peru,El Agustino,2010,73.82,35.18,30.27,-12.040208,-76.991557,no,no,no,4,Poor
Amr,United States of America,El Centro CA,2010,29.57430902,8.533,17.0,32.81557667,-115.5284333,yes,no,no,2,Good
Amr,United States of America,El Dorado AR,2010,29.57430902,11.6,22.83513503,33.22056253,-92.67226274,yes,no,yes,2,Good
Eur,Spain,El Ejido,2010,30.303,15.50481542,16.038,36.769719,-2.810969,no,yes,no,2,Good
Amr,United States of America,El Paso TX,2010,32.0,8.3,27.667,31.7370615,-106.411819,no,no,no,2,Good
Amr,Chile,El bosque,2010,70.267,27.772,22.757,-33.547,-70.6662,no,no,no,4,Poor
Eur,Turkey,Elazig,2010,86.665,15.50481542,22.83513503,38.675556,39.211945,no,yes,yes,4,Poor
Eur,Poland,Elblag,2010,26.482,22.679,13.721,54.168056,19.410833,no,no,no,3,Moderate
Eur,Spain,Elche,2010,21.3077,11.951,16.675,38.259167,-0.7175,yes,yes,no,2,Good
Eur,Spain,Elciego,2010,16.687,15.50481542,9.682,42.518333,-2.619444,no,yes,no,2,Good
Eur,Spain,Elda,2010,14.467,10.259,13.222,38.454722,-0.803333,no,no,no,2,Good
Eur,Greece,Elefsina,2010,28.11644444,16.83842857,36.714,38.05135,23.538446,yes,yes,no,2,Good
Amr,United States of America,Elizabethtown Fort Knox KY,2010,29.57430902,11.8,22.83513503,37.705612,-85.852629,yes,no,yes,2,Good
Amr,United States of America,Elkhart Goshen IN,2010,29.57430902,12.1,22.83513503,41.65715496,-85.96844591,yes,no,yes,2,Good
Amr,United States of America,Elko NV,2010,25.9,15.50481542,22.83513503,40.83835,-115.766029,no,yes,yes,2,Good
Eur,Germany,Elsterwerda,2010,27.978,22.983,17.299,51.462734,13.526797,no,no,no,3,Moderate
Eur,Germany,Emden,2010,19.092,15.50481542,16.239,53.362347,7.207261,no,yes,no,2,Good
Eur,Germany,Emmerich,2010,29.83,15.50481542,33.662,51.873886,6.156389,no,yes,no,2,Good
Eur,Italy,Empoli,2010,34.022,15.50481542,59.133,43.718891,10.948889,no,yes,no,2,Good
Eur,Belgium,Engis,2010,24.385,15.774,23.834,50.584167,5.396155,no,no,no,2,Good
Eur,Italy,Enna,2010,17.513,7.9145,1.33,37.549999,14.266666,no,yes,no,1,Very Good
Eur,Ireland,Ennis,2010,27.493,11.756,22.83513503,52.843056,-8.998889,no,no,yes,2,Good
Eur,United Kingdom of Great Britain and Northern Ireland,Enniskillen,2010,10.34,15.50481542,22.83513503,54.43951,-7.900328,no,yes,yes,2,Good
Eur,Austria,Enns,2010,28.26,16.248,53.113,48.206944,14.454169,no,yes,no,2,Good
Eur,France,Epinal,2010,13.85577778,15.50481542,18.549,48.172778,6.452811,yes,yes,no,2,Good
Eur,Spain,Erandio,2010,24.61566667,9.174217969,30.366,43.302778,-2.977222,yes,yes,no,2,Good
Eur,Italy,Erba,2010,23.824,16.224,34.992,45.809444,9.222777,no,yes,no,2,Good
Eur,Germany,Erfurt,2010,26.842,16.837,33.076,50.9816248,11.0304968,no,no,no,2,Good
Amr,United States of America,Erie PA,2010,14.2,11.1,14.8,42.14175,-80.038611,no,no,no,2,Good
Eur,Germany,Erlangen,2010,21.452,15.50150444,28.901,49.604269,10.9824225,no,yes,no,2,Good
Eur,Portugal,Ermesinde,2010,29.015,8.4445,30.251,41.206112,-8.551683,no,yes,no,2,Good
Eur,Germany,Erpfingen,2010,15.033,15.49781739,8.876,48.345778,9.207639,no,yes,no,2,Good
Eur,Spain,Errenteria,2010,21.067,9.13,28.89,43.314444,-1.899444,no,yes,no,2,Good
Eur,Turkey,Erzincan,2010,59.682,27.5665,36.6936,39.743057,39.494999,no,yes,yes,4,Poor
Eur,Turkey,Erzurum,2010,63.212,42.83566667,61.20866667,39.898056,41.272499,no,yes,yes,4,Poor
Eur,Spain,Escatron,2010,29.57235372,15.4944939,12.801,41.288333,-0.326667,yes,yes,no,2,Good
Eur,France,Escautpont,2010,25.61,14.43777778,18.361,50.42029,3.55181,no,yes,no,2,Good
Eur,Luxembourg,Esch Sur Alzette,2010,21.559,9.908,28.83,49.50500175,5.98250625,no,no,no,2,Good
Eur,Turkey,Eskisehir,2010,35.937,20.952,47.675,39.780556,30.501112,no,yes,yes,3,Moderate
Eur,Spain,Espiel,2010,15.433,15.49394295,22.83513503,38.108139,-4.9268,no,yes,yes,2,Good
Eur,Portugal,Espinho,2010,39.336,8.155,25.271,41.013054,-8.636947,no,yes,no,2,Good
Eur,Finland,Espoo,2010,14.745,8.482,17.976,60.2575892,24.762577,no,no,no,1,Very Good
Eur,Germany,Essen,2010,28.494,18.7,44.544,51.46144155,7.003563455,no,no,no,2,Good
Eur,Portugal,Estarreja,2010,29.796,11.14985714,20.876,40.679169,-8.583333,no,yes,no,2,Good
Eur,Italy,Este,2010,29.922,19.4395,28.759,45.226665,11.665833,no,yes,no,2,Good
Amr,Brazil,Esteio,2010,23.2,15.47606504,25.0,-29.859154,-51.178705,no,yes,yes,2,Good
Eur,Hungary,Esztergom,2010,29.836,22.748,18.186,47.790001,18.746122,no,no,no,3,Moderate
Afr,South Africa,Ethekwini,2010,27.713,18.8435,41.87,-29.89887375,30.99809175,no,yes,no,2,Good
Eur,Italy,Etroubles,2010,25.675,14.587,5.405,45.815834,7.235278,yes,yes,no,2,Good
Amr,United States of America,Eugene OR,2010,11.7,7.2,22.83513503,43.9093472,-122.9397659,no,no,yes,1,Very Good
Eur,Belgium,Eupen,2010,29.57081812,15.48964339,15.289,50.629421,6.001019,yes,yes,no,2,Good
Amr,United States of America,Eureka Arcata Fortuna CA,2010,16.7,5.6,5.0,40.77678,-124.17949,no,no,no,1,Very Good
Amr,United States of America,Evanston WY,2010,12.5,15.48964339,2.7,41.39643743,-110.8076541,no,yes,no,2,Good
Amr,United States of America,Evansville IN KY,2010,19.8,13.2,20.9,37.99388472,-87.55475528,no,no,no,2,Good
Eur,Belgium,Evergem,2010,31.222,20.344,27.984,51.135555,3.7439105,no,no,no,3,Moderate
Eur,France,Evin Malmaison,2010,27.262,23.538,25.255,50.434569,3.040833,no,yes,yes,3,Moderate
Eur,France,Evreux,2010,23.199,15.0605,20.298,49.021339,1.148319,no,yes,no,2,Good
Eur,France,Evry,2010,29.57081812,15.49382435,29.303,48.627219,2.429167,yes,yes,no,2,Good
Eur,United Kingdom of Great Britain and Northern Ireland,Exeter,2010,7.5,3.2,39.877,50.725083,-3.532465,yes,yes,no,1,Very Good
Eur,Spain,Fabero,2010,29.57081812,12.199,13.521,42.781389,-6.603889,yes,no,no,2,Good
Eur,Italy,Fabriano,2010,32.848,19.937,18.088,43.343887,12.909444,no,no,no,2,Good
Eur,Italy,Faenza,2010,28.239,19.879,25.62,44.283333,11.8718892,no,no,no,2,Good
Amr,United States of America,Fairbanks AK,2010,18.71818182,12.6,22.83609492,64.84569,-147.727413,yes,no,yes,2,Good
Amr,United States of America,Fairmont WV,2010,29.57081812,13.3,22.83609492,39.481483,-80.134667,yes,no,yes,2,Good
Eur,Italy,Falcade,2010,5.789,15.49382435,4.611,46.339722,11.803056,no,yes,no,2,Good
Eur,Italy,Falconara Marittima,2010,42.731,20.878,28.911,43.633335,13.3875,no,no,no,3,Moderate
Eur,Italy,Fanna,2010,17.578,15.49382435,22.83609492,46.182224,12.748611,no,yes,yes,2,Good
Eur,Italy,Fano,2010,33.961,17.927,33.16,43.83953633,13.014259,no,yes,no,2,Good
Amr,United States of America,Fargo ND MN,2010,13.0,9.6,10.2,46.933754,-96.85535,no,no,no,1,Very Good
Amr,United States of America,Farmington NM,2010,29.57081812,15.49508572,19.9,36.78287642,-108.0342989,yes,yes,no,2,Good
Amr,United States of America,Fayetteville NC,2010,29.57081812,11.4,22.83609492,35.041416,-78.953112,yes,no,yes,2,Good
Amr,United States of America,Fayetteville Springdale Rogers AR MO,2010,29.57081812,11.1,22.83609492,36.17970005,-94.11682738,yes,no,yes,2,Good
Eur,Austria,Feldkirch,2010,26.022,15.49508572,56.615,47.238888,9.596678,no,yes,no,2,Good
Eur,Italy,Feltre,2010,27.168,24.438,18.281,46.030833,11.905833,no,no,no,3,Moderate
Eur,Italy,Ferentino,2010,28.12255556,19.801,49.188,41.69,13.250278,yes,yes,no,2,Good
Eur,France,Ferney Voltaire,2010,26.211,13.2361358,19.212,46.255833,6.1125,no,yes,no,2,Good
Eur,Italy,Ferno,2010,41.064,15.48364257,26.231,45.616667,8.75,no,yes,no,3,Moderate
Eur,Italy,Ferrandina,2010,14.28,15.49391117,14.095,40.484722,16.500834,no,yes,no,2,Good
Eur,Italy,Ferrara,2010,29.904,20.477,34.945,44.8320002,11.6350556,no,no,no,3,Moderate
Eur,Spain,Ferrol,2010,20.94,7.894,18.77,43.480556,-8.241389,no,yes,no,2,Good
Eur,France,Feyzin,2010,28.952,18.114,33.513,45.6639,4.8459,no,yes,no,2,Good
Afr,South Africa,Fezile Dabi,2010,62.307,36.492,23.88283333,-26.845083,27.855778,yes,no,yes,4,Poor
Eur,Italy,Fidenza,2010,26.493,21.91,25.483,44.862222,10.049167,no,yes,no,3,Moderate
Eur,Romania,Fieni,2010,19.111,15.49857862,13.73,45.131382,25.421743,no,yes,no,2,Good
Eur,Spain,Figols,2010,18.18225,10.982,6.969,42.18,1.836111,yes,yes,no,2,Good
Eur,Italy,Filago,2010,29.379,26.36501429,36.477,45.633053,9.556389,no,yes,no,4,Poor
Eur,Italy,Fiorano Modenese,2010,37.806,19.83883333,48.471,44.544998,10.81,no,yes,no,2,Good
Eur,Italy,Firenze,2010,30.606,14.62777778,53.228,43.778981,11.26716011,no,yes,no,2,Good
Eur,France,Firminy,2010,24.394,21.728,21.116,45.387944,4.281678,no,yes,no,3,Moderate
Eur,Italy,Firmo,2010,8.333,15.50729554,3.987,39.714169,16.205557,no,yes,no,2,Good
Eur,Germany,Flensburg,2010,19.22822222,14.417,34.875,54.781429,9.438089,yes,no,no,2,Good
Eur,France,Fleville Devant Nancy,2010,23.894,17.603,23.375,48.621503,6.194922,no,yes,no,2,Good
Amr,United States of America,Flint MI,2010,29.566345,8.9,22.83609492,43.04722419,-83.67015909,yes,no,yes,2,Good
Eur,France,Florange,2010,24.117,22.355,22.517,49.320831,6.14,no,yes,no,3,Moderate
Amr,United States of America,Florence SC,2010,29.566345,10.9,22.83609492,34.21426338,-79.76734715,yes,no,yes,2,Good
Eur,Italy,Floridia,2010,32.50542857,10.56292857,28.581,37.084999,15.154444,yes,yes,no,2,Good
Eur,Italy,Foligno,2010,26.878,17.86444444,27.099,42.951668,12.7075,no,yes,no,2,Good
Eur,France,Fontaine,2010,24.352,21.2015,23.204,45.190439,5.686964,no,yes,no,3,Moderate
Eur,France,Fontainebleau,2010,22.026,15.51227665,11.132,48.354444,2.646667,no,yes,no,2,Good
Eur,Italy,Fontechiari,2010,19.025,15.235,7.527,41.670002,13.674445,no,no,no,2,Good
Eur,Italy,Forli,2010,27.813,17.865,36.338,44.2174996,12.051889,no,no,no,2,Good
Amr,United States of America,Fort Collins CO,2010,29.56749803,6.5,22.83609492,40.571288,-105.079693,yes,no,yes,2,Good
Amr,United States of America,Fort Madison Keokuk IA IL MO,2010,29.56749803,11.9,22.83609492,40.40095865,-91.39101153,yes,no,yes,2,Good
Amr,United States of America,Fort Payne AL,2010,29.56749803,11.6,22.83609492,34.288567,-85.969858,yes,no,yes,2,Good
Amr,United States of America,Fort Smith AR OK,2010,29.56749803,8.809090909,10.80909091,35.40814,-94.524413,yes,yes,yes,2,Good
Amr,United States of America,Fort Wayne IN,2010,29.56749803,14.5,22.83609492,41.1323055,-85.36555435,yes,no,yes,2,Good
Eur,United Kingdom of Great Britain and Northern Ireland,Fort William,2010,29.56749803,15.51227665,13.379,56.82266,-5.101102,yes,yes,no,2,Good
Eur,France,Fort de France,2010,34.228,19.133,18.773,14.60989111,-61.058996,no,no,no,2,Good
Eur,France,Fos Sur Mer,2010,32.131,10.505,11.4335,43.458889,4.934167,no,yes,yes,2,Good
Eur,France,Fougeres,2010,29.56749803,15.51227665,14.815,48.347503,-1.202222,yes,yes,no,2,Good
Eur,Spain,Foz Calanda,2010,10.39366667,5.377142857,3.257,40.92,-0.262778,yes,yes,no,1,Very Good
Eur,Italy,Francavilla Fontana,2010,42.4446,15.51227665,15.864,40.5275,17.587502,yes,yes,no,3,Moderate
Eur,Germany,Frankenthal,2010,18.37833333,16.08575,37.207,49.5333,8.3553,yes,yes,no,2,Good
Eur,Germany,Frankfurt Am Main,2010,22.732,19.705,42.929,50.1114948,8.6430049,no,no,no,2,Good
Eur,Germany,Frankfurt Order,2010,35.014,14.81255556,36.383,52.337334,14.538595,no,yes,no,2,Good
Eur,Norway,Fredrikstad,2010,25.582,10.3135,16.090125,59.281666,10.949445,no,yes,yes,2,Good
Eur,Germany,Freiberg,2010,24.578,15.51257059,26.804,50.916302,13.346825,no,yes,no,2,Good
Eur,Germany,Freiburg,2010,22.301,15.98,46.015,47.99807,7.845372,no,no,no,2,Good
Eur,Austria,Freistadt,2010,14.546,10.911,7.374,48.531113,14.574728,no,no,no,2,Good
Eur,France,Fremainville,2010,19.307,15.51257059,22.83609492,49.063086,1.866381,no,yes,yes,2,Good
Amr,United States of America,Fresno CA,2010,29.4,11.667,16.8,36.72999314,-119.8178149,no,no,no,2,Good
Eur,Germany,Freudenstadt,2010,13.152,15.51257059,13.176,48.472086,8.412808,no,yes,no,2,Good
Eur,France,Freyming Merlebach,2010,18.842,15.47079456,21.208,49.146525,6.815419,no,yes,no,2,Good
Eur,Germany,Friedrichshafen,2010,20.929,10.446,23.667,47.660056,9.485675,no,yes,no,2,Good
Eur,France,Frolois,2010,23.859,17.603,27.5315,48.565444,6.129578,no,yes,yes,2,Good
Eur,Italy,Frosinone,2010,46.514,19.8,48.274,41.62,13.330833,no,yes,no,3,Moderate
Eur,France,Frossay,2010,20.186,15.51361796,8.109,47.247469,-1.936619,no,yes,no,2,Good
Eur,Czechia,Frydek Mistek,2010,45.949,15.51361796,23.913,49.671791,18.351072,no,yes,no,3,Moderate
Eur,Czechia,Frydlant,2010,22.415,11.29514286,8.733,50.938221,15.080289,no,yes,no,2,Good
Eur,Spain,Fuenlabrada,2010,28.893,8.894,35.425,40.281111,-3.801667,no,yes,no,2,Good
Wpr,Japan,Fukuoka,2010,29.56749803,16.0,19.93533333,33.5892157,130.3928134,yes,no,yes,2,Good
Eur,Germany,Fulda,2010,22.112,19.268,35.298,50.5497344,9.6837762,no,no,no,2,Good
Eur,Portugal,Funchal,2010,25.603,9.027,14.963,32.64333567,-16.904824,no,no,no,2,Good
Eur,Portugal,Fundao Centro Interior,2010,14.517,6.85,3.851,40.135281,-7.175286,no,no,no,1,Very Good
Eur,Spain,Funes,2010,21.084,15.51023888,3.878,42.308333,-1.808333,no,yes,no,2,Good
Eur,Austria,Furstenfeld,2010,27.959,15.51023888,22.445,47.046944,16.078901,no,yes,no,2,Good
Eur,Germany,Furth,2010,14.787,15.51023888,11.496,49.653465,8.81725,no,yes,no,2,Good
Eur,Poland,Gac,2010,17.022,15.51023888,22.83794788,54.69389,17.458055,no,yes,yes,2,Good
Amr,United States of America,Gadsden AL,2010,29.56749803,13.2,22.83794788,33.991494,-85.992647,yes,no,yes,2,Good
Eur,France,Gaillard,2010,27.436,15.47,24.639,46.193692,6.214859,no,no,no,2,Good
Amr,United States of America,Gainesville GA,2010,29.56749803,11.4,22.83794788,34.2993,-83.8134,yes,no,yes,2,Good
Eur,Poland,Gajew,2010,28.426,15.51023888,10.763,52.143333,19.233333,no,yes,no,2,Good
Eur,Bulgaria,Galabovo,2010,38.299,15.51023888,8.73,42.146475,25.875406,no,yes,no,2,Good
Eur,Romania,Galati,2010,18.91122222,9.279,14.465,45.44588,28.025895,yes,yes,no,1,Very Good
Eur,Italy,Galatina,2010,21.171,15.746,19.392,40.28125,18.1906935,no,no,no,2,Good
Eur,Spain,Galilea,2010,12.99,9.153,9.624,42.341667,-2.231667,no,no,no,1,Very Good
Eur,Italy,Gallarate,2010,34.10832818,15.48364257,42.607,45.65667,8.797778,yes,yes,no,2,Good
Eur,Ireland,Galway,2010,16.354,15.51022535,22.83794788,53.281666,-9.049167,no,yes,yes,2,Good
Eur,Italy,Gambara,2010,29.5692718,15.51022535,25.015,45.24889,10.299445,yes,yes,no,2,Good
Eur,Spain,Gandia,2010,20.768,14.228,17.476,38.966667,-0.19,no,no,no,2,Good
Eur,France,Gandrange,2010,21.008,22.355,22.1755,49.271392,6.1325,no,yes,yes,3,Moderate
Wpr,Republic of Korea,Gangwon,2010,47.51,24.917,0.016,37.64467454,128.3052171,no,yes,no,3,Moderate
Eur,Austria,Ganserndorf,2010,25.547,17.596,15.519,48.334721,16.73057,no,yes,no,2,Good
Eur,France,Gap,2010,18.68744444,11.60942857,32.934,44.555214,6.073056,yes,yes,no,2,Good
Eur,France,Garches,2010,27.945,18.444,23.563,48.846389,2.189444,yes,yes,no,2,Good
Eur,France,Gardanne,2010,35.175,13.45355556,25.77442857,43.453481,5.467106,no,yes,yes,2,Good
Eur,Italy,Gargazzone,2010,19.125,13.84,27.145,46.576942,11.200833,no,yes,no,2,Good
Eur,Germany,Garmisch Partenkirchen,2010,29.56863781,15.51539477,11.406,47.476395,11.063066,yes,yes,no,2,Good
Eur,Germany,Gartringen,2010,19.528,8.27,17.964,48.645608,8.904442,no,yes,no,1,Very Good
Eur,Turkey,Gaziantep,2010,70.843,15.51539477,22.83768697,37.058887,37.366108,no,yes,yes,4,Poor
Eur,Poland,Gdansk,2010,26.776,20.511,20.784,54.3667306,18.6289936,no,no,no,3,Moderate
Eur,Poland,Gdynia,2010,20.437,15.51539477,19.555,54.51334,18.47907,no,yes,no,2,Good
Eur,Germany,Gehlberg,2010,11.937,6.865,5.452,50.654068,10.769533,no,yes,no,1,Very Good
Eur,Italy,Gela,2010,34.134,12.634,35.923,37.067684,14.257222,no,yes,no,2,Good
Eur,Germany,Gelsenkirchen,2010,25.211,19.476,29.763,51.533646,7.101786,yes,no,no,2,Good
Eur,Austria,Gemeinde Gratwein,2010,30.651,21.925,20.11,47.142223,15.325563,yes,yes,no,3,Moderate
Eur,France,Genas,2010,26.816,15.888,33.074,45.731825,4.980547,no,yes,no,2,Good
Eur,Switzerland,Geneve,2010,21.655,11.1,28.766,46.2104145,6.14224225,no,yes,no,2,Good
Eur,Italy,Genga,2010,18.195,9.347,18.088,43.468056,12.952222,no,no,yes,1,Very Good
Eur,Belgium,Genk,2010,26.419,20.524,24.532,50.94183175,5.49718475,no,yes,no,3,Moderate
Eur,France,Gennevilliers,2010,27.945,18.444,35.204,48.929722,2.294722,no,no,no,2,Good
Eur,Italy,Genova,2010,22.199,12.35011111,48.518,44.41792877,8.933675154,no,yes,no,2,Good
Eur,Belgium,Gent,2010,31.253,20.52,30.049,51.08672687,3.740447875,no,no,no,3,Moderate
Amr,United States of America,Georgetown SC,2010,19.6,15.52135575,22.83581775,33.36891569,-79.29661656,no,yes,yes,2,Good
Eur,Germany,Gera,2010,26.576,15.52135575,22.66,50.877316,12.074711,no,yes,no,2,Good
Wpr,Australia,Geraldton,2010,21.7,15.52135575,22.83581775,-28.7695,114.6323,no,yes,yes,2,Good
Eur,France,Gerardmer,2010,29.56905995,15.52135575,21.118,48.071669,6.872778,yes,yes,no,2,Good
Afr,South Africa,Gert Sibande,2010,55.521,34.49,26.81,-26.335086,29.4189695,no,no,no,4,Poor
Eur,France,Gerzat,2010,20.8275,15.361,22.524,45.82375,3.142917,yes,yes,no,2,Good
Eur,Spain,Getafe,2010,28.216,10.036,36.773,40.324722,-3.714167,no,yes,no,2,Good
Amr,United States of America,Gettysburg PA,2010,29.56565326,11.7,5.0,39.92002011,-77.30968017,yes,no,no,2,Good
Eur,Spain,Getxo,2010,22.611,9.045249844,29.806,43.34314833,-3.012499667,no,yes,no,2,Good
Eur,Malta,Gharb,2010,32.44,11.332,3.019,36.06707,14.197153,no,no,no,2,Good
Eur,United Kingdom of Great Britain and Northern Ireland,Gibraltar,2010,35.629,14.574,42.777,36.1256485,-5.351852333,no,no,no,2,Good
Eur,Germany,Giessen,2010,27.528,19.439,46.127,50.58411,8.668578,no,no,no,2,Good
Eur,Spain,Gijon,2010,30.028,11.938,34.743,43.53539671,-5.689007857,no,no,no,2,Good
Amr,United States of America,Gillette WY,2010,17.943,15.51524904,7.9,44.09892124,-105.3740339,no,yes,no,2,Good
Eur,Spain,Ginebrosa,2010,13.724,9.750326294,4.399,40.851667,-0.148056,no,yes,no,1,Very Good
Amr,Colombia,Girardota,2010,47.0,21.0,17.26666667,6.378271,-75.44407,no,yes,yes,3,Moderate
Eur,Turkey,Giresun,2010,29.301,21.307,54.14116667,40.907223,38.361942,no,yes,yes,3,Moderate
Eur,Spain,Girona,2010,21.44657143,15.51234772,32.291,41.986111,2.811667,yes,yes,no,2,Good
Eur,Romania,Giurgiu,2010,24.2314,28.91,20.817,43.894169,25.952957,yes,yes,no,4,Poor
Eur,France,Givors,2010,26.187,14.9505,25.097,45.582192,4.773025,no,yes,no,2,Good
Eur,United Kingdom of Great Britain and Northern Ireland,Glasgow,2010,28.631,17.744,58.796,55.85889733,-4.255491333,no,no,no,2,Good
Eur,Germany,Glashutten,2010,10.616,15.51879787,8.905,50.221943,8.446078,no,yes,no,2,Good
Eur,Germany,Glauchau,2010,24.837,8.116,26.038,50.826,12.542056,no,yes,no,2,Good
Amr,United States of America,Glenwood Springs CO,2010,8.155555556,15.51508161,22.83362862,39.43806,-108.02611,yes,yes,yes,2,Good
Eur,Poland,Gliwice,2010,41.856125,42.943,29.441,50.279446,18.655832,yes,no,no,4,Poor
Eur,Poland,Glogow,2010,28.20125,15.51508161,11.202,51.664519,16.040817,yes,yes,no,2,Good
Eur,Poland,Glubczyce,2010,44.303,15.51508161,22.83362862,50.201194,17.816517,no,yes,yes,3,Moderate
Eur,Poland,Godow,2010,59.185,49.097,25.326,49.925161,18.476106,no,no,yes,4,Poor
Eur,Germany,Goettingen,2010,16.585,13.242,15.808,51.551067,9.949761,no,no,no,2,Good
Eur,Germany,Gohlen,2010,18.798,15.51508161,8.282,53.302353,11.362965,no,yes,no,2,Good
Eur,Poland,Goldap,2010,25.7725,10.678,6.998,54.305832,22.307222,yes,yes,no,2,Good
Eur,Portugal,Gondomar Porto Litoral,2010,26.739,8.4445,32.222,41.189167,-8.54807,yes,yes,no,2,Good
Eur,France,Gonesse,2010,26.18,17.91098148,28.441,48.990831,2.444722,no,yes,no,2,Good
Eur,Italy,Gorizia,2010,20.809,13.352,29.473,45.93500267,13.60166667,no,yes,no,2,Good
Eur,Poland,Gorlice,2010,39.293,15.51274193,22.83460717,49.658611,21.163333,no,yes,yes,2,Good
Eur,Germany,Gorlitz,2010,31.035,10.791,29.321,51.1558,14.973958,no,yes,no,2,Good
Eur,Bulgaria,Gorna Oryahovitsa,2010,51.56,15.51274193,19.56,43.126475,25.691211,no,yes,no,4,Poor
Eur,Poland,Gorne Gruczno,2010,23.003,15.51274193,22.83460717,53.355556,18.318333,no,yes,yes,2,Good
Eur,Poland,Gorzow Wielkopolski,2010,35.823,18.799,20.888,52.7426365,15.2374765,no,no,no,2,Good
Eur,Germany,Goslar,2010,16.395,7.85,12.999,51.901581,10.481319,no,yes,no,1,Very Good
Eur,Sweden,Goteborg,2010,18.876,9.064,37.084,57.70226229,11.97322129,no,no,no,1,Very Good
Eur,Germany,Gottingen,2010,26.933,17.899,40.593,51.530197,9.92833,no,no,no,2,Good
Wpr,Republic of Korea,Goyang Si,2010,64.291,15.51274193,0.048,37.65198889,126.7778889,no,yes,no,4,Poor
Eur,Spain,Granada,2010,39.903,19.765625,40.815,37.18596033,-3.608474,no,yes,no,2,Good
Eur,Spain,Granadilla De Abona,2010,25.171,8.877,9.215,28.08101867,-16.55629633,no,no,no,2,Good
Eur,France,Grand Couronne,2010,25.83,18.444,39.035,49.358214,1.007853,no,yes,yes,2,Good
Amr,United States of America,Grand Island NE,2010,29.56455254,7.3,22.84096026,40.942099,-98.364967,yes,no,yes,2,Good
Amr,United States of America,Grand Junction CO,2010,23.0,9.0,22.84096026,39.063798,-108.561173,no,no,yes,2,Good
Amr,United States of America,Grand Rapids Wyoming MI,2010,13.0,9.6,22.84096026,42.98417304,-85.67133874,no,no,yes,1,Very Good
Eur,France,Grande Synthe,2010,25.88,17.757,23.167,51.011206,2.293056,no,yes,no,2,Good
Eur,United Kingdom of Great Britain and Northern Ireland,Grangemouth,2010,14.401,11.009,19.297,56.005349,-3.728742,no,no,no,2,Good
Eur,Poland,Granica,2010,31.037,15.51532452,8.283,52.285858,20.454651,no,yes,no,2,Good
Eur,Spain,Granollers,2010,29.12642857,17.37575,41.209,41.600833,2.288333,yes,yes,no,2,Good
Amr,United States of America,Grants Pass OR,2010,29.56455254,6.4,22.84096026,42.434139,-123.348466,yes,no,yes,2,Good
Eur,France,Gravelines,2010,22.301,15.51532452,22.84096026,50.981664,2.143056,no,yes,yes,2,Good
Eur,Austria,Graz,2010,30.651,21.925,34.976,47.06476057,15.42647786,no,no,no,3,Moderate
Eur,Germany,Grebenau,2010,29.56455254,15.51532452,10.525,50.759457,9.464639,yes,yes,no,2,Good
Amr,United States of America,Greeley CO,2010,29.56455254,7.45,22.84096026,40.312132,-104.76549,yes,no,yes,2,Good
Amr,United States of America,Green Bay WI,2010,29.56455254,10.0,22.84096026,44.50729,-87.99344,yes,no,yes,2,Good
Amr,United States of America,Greensboro High Point NC,2010,29.56455254,10.4,22.84096026,36.109006,-79.802314,yes,no,yes,2,Good
Amr,United States of America,Greenville Anderson Mauldin SC,2010,16.6,11.8,20.2,34.79787161,-82.33564288,no,no,no,2,Good
Amr,United States of America,Greenville NC,2010,29.56455254,9.2,22.84096026,35.641276,-77.360126,yes,no,yes,2,Good
Eur,Germany,Greiz,2010,24.288,18.507,20.189,50.655861,12.2052,no,no,no,2,Good
Eur,France,Grenoble,2010,28.414,19.479,40.569,45.1695824,5.7294208,no,no,no,2,Good
Eur,United Kingdom of Great Britain and Northern Ireland,Greve In Chianti,2010,26.977,15.936,29.543,53.715504,-2.483815,yes,yes,no,2,Good
Eur,Italy,Greve In Chianti,2010,26.977,15.936,14.842,43.626667,11.283889,no,no,no,2,Good
Eur,Germany,Grevenbroich,2010,28.71,15.51532452,23.837,51.063766,6.559478,no,yes,no,2,Good
Eur,Belgium,Grimbergen,2010,27.1695,16.12758333,28.444,50.926643,4.394653,yes,yes,no,2,Good
Eur,Netherlands (Kingdom of the),Groningen,2010,24.884,17.62,25.072,53.2296112,6.5908988,no,no,no,2,Good
Eur,Austria,Grossenzersdorf,2010,28.419,17.596,15.668,48.236668,16.636948,no,yes,no,2,Good
Eur,Italy,Grosseto,2010,27.231,10.547,26.657,42.75523117,11.1119445,no,no,no,2,Good
Eur,France,Grosseto Prugna,2010,22.642,9.5934,6.843,41.896078,8.804431,yes,yes,no,2,Good
Eur,Italy,Grottaglie,2010,17.84122222,15.5126829,11.556,40.537777,17.423889,yes,yes,no,2,Good
Eur,Poland,Grudziadz,2010,22.639,22.69628571,22.818,53.464167,18.769444,no,yes,yes,3,Moderate
Eur,Poland,Gryfino,2010,26.071,15.5126829,22.84096026,53.248333,14.493611,no,yes,yes,2,Good
Eur,Spain,Guadalajara,2010,24.97,25.0,23.343,40.629722,-3.171667,no,yes,no,3,Moderate
Eur,Spain,Guadalix De La Sierra,2010,25.416,15.50830675,10.67,40.780833,-3.7025,no,yes,no,2,Good
Eur,Italy,Guagnano,2010,27.295,14.55175,8.206,40.428059,17.964167,no,yes,no,2,Good
Amr,Brazil,Guapimirim,2010,23.0,13.33666667,7.848333333,-22.66669,-42.97577629,no,yes,yes,2,Good
Eur,Italy,Guardiaregia,2010,29.56093686,15.51112392,5.886,41.418892,14.525556,yes,yes,no,2,Good
Eur,Spain,Guardo,2010,20.37,6.735,10.218,42.795278,-4.840833,no,yes,no,2,Good
Eur,Italy,Guastalla,2010,31.779,24.045,26.669,44.873055,10.663889,no,no,no,3,Moderate
Eur,Italy,Gubbio,2010,24.526,12.89566667,21.747,43.352778,12.576389,no,yes,no,2,Good
Eur,France,Gueret,2010,19.587,15.50677285,17.14,46.17,1.87,no,yes,no,2,Good
Eur,Italy,Guidonia,2010,25.758,14.24155556,30.262,41.995556,12.726389,no,yes,no,2,Good
Eur,Spain,Guillena,2010,21.226,15.50677285,13.272,37.555019,-6.036161,no,yes,no,2,Good
Eur,Portugal,Guimaraes,2010,20.026,15.50677285,37.151,41.449722,-8.2964,no,yes,no,2,Good
Amr,United States of America,Gulfport Biloxi Pascagoula MS,2010,29.56093686,15.50677285,10.4,30.37828672,-88.53392961,yes,yes,no,2,Good
Eur,Germany,Gulzow,2010,20.36,11.69244444,8.539,53.817772,12.064709,no,yes,no,2,Good
Eur,Turkey,Gumushane,2010,60.222,15.50677285,24.973,40.460835,39.480835,no,yes,yes,4,Poor
Eur,Germany,Gustrow,2010,19.79,14.619,11.201,53.78175,12.175511,no,no,no,2,Good
Sear,India,Guwahati,2010,108.572,53.0,15.333,26.24443704,92.09416296,no,yes,no,5,Very Poor
Wpr,Republic of Korea,Gwangju,2010,47.776,24.483,0.023,35.16000035,126.8684017,no,yes,no,3,Moderate
Wpr,Republic of Korea,Gyeonggi,2010,58.304,27.1138,0.03,41.41963022,122.9684829,no,yes,no,4,Poor
Wpr,Republic of Korea,Gyeongsangbuk,2010,46.974,22.7366,0.016,38.27686829,126.1627691,no,yes,no,3,Moderate
Eur,Hungary,Gyor,2010,27.816,18.596,30.673,47.6816132,17.6435608,no,no,no,2,Good
Eur,Netherlands (Kingdom of the),Haarle,2010,23.683,15.50677285,17.466,52.389168,6.403614,no,yes,no,2,Good
Eur,Netherlands (Kingdom of the),Haarlem,2010,27.241,15.50677285,41.528,52.381664,4.648069,no,yes,no,2,Good
Eur,Belgium,Habay,2010,16.226,11.798,12.711,49.719864,5.629114,no,no,no,2,Good
Eur,Germany,Hafen,2010,21.64,15.653,27.347,53.140853,8.705903,no,yes,yes,2,Good
Eur,Iceland,Hafnarfjordur,2010,10.817,5.414,3.423,64.059166,-21.99,no,no,no,1,Very Good
Eur,Germany,Hagen,2010,31.402,11.455,63.313,51.362827,7.463531,no,yes,no,2,Good
Amr,United States of America,Hagerstown Martinsburg MD WV,2010,29.56093686,11.95,22.83686714,39.50614145,-77.8420446,yes,no,yes,2,Good
Eur,Austria,Hainburg An Der Donau,2010,27.931,10.517,16.125,48.14389,16.961123,no,yes,no,2,Good
Eur,Turkey,Hakkari,2010,70.339,15.50684506,22.83686714,37.575275,43.738888,no,yes,yes,4,Poor
Eur,Germany,Halberstadt,2010,31.054,9.974333333,16.887,51.8932815,11.0567045,no,yes,no,2,Good
Eur,Austria,Hall In Tirol,2010,28.664,16.114,40.234,47.278057,11.512511,no,yes,no,2,Good
Eur,Germany,Halle And Der Saale,2010,30.093,20.393,38.319,51.48653611,11.9815,no,no,no,3,Moderate
Eur,Austria,Hallein,2010,24.34,11.3205,38.905,47.6830568,13.1051784,no,yes,no,2,Good
Eur,France,Halluin,2010,29.56093686,15.50714459,26.407,50.775481,3.127047,yes,yes,no,2,Good
Eur,Sweden,Halmstad,2010,18.469,8.398,16.016875,56.67206,12.86338,no,yes,yes,1,Very Good
Emr,Iran (Islamic Republic of),Hamadan,2010,136.8,26.706,22.83686714,34.79850006,48.51319885,no,yes,yes,5,Very Poor
Wpr,Japan,Hamamatsu,2010,29.56093686,9.0,22.83686714,34.7108955,137.7259397,yes,no,yes,2,Good
Eur,Germany,Hamburg,2010,23.027,17.404,34.43,53.5525113,9.9893723,no,no,no,2,Good
Eur,Finland,Hameenlinna,2010,18.469,15.50714459,22.83686714,60.996061,24.455969,no,yes,yes,2,Good
Amr,United States of America,Hammond LA,2010,29.56093686,9.0,22.83686714,30.50328715,-90.37721231,yes,no,yes,2,Good
Eur,Germany,Hanau,2010,17.274,15.50714459,37.837,50.134842,8.918083,no,yes,no,2,Good
Eur,Slovakia,Handlova,2010,28.632,20.429,15.96433333,48.733055,18.756395,no,no,yes,3,Moderate
Amr,United States of America,Hanford Corcoran CA,2010,31.6,16.2,16.94545455,36.208957,-119.6045485,no,no,yes,2,Good
Eur,Germany,Hannover,2010,24.725,16.47,36.117,52.36121,9.7109445,no,no,no,2,Good
Eur,Germany,Harburg,2010,20.65,17.404,27.356,53.46756,9.971705,no,yes,no,2,Good
Eur,France,Harfleur,2010,25.01,16.85,24.328,49.505,0.201694,yes,yes,no,2,Good
Eur,Netherlands (Kingdom of the),Harich,2010,23.53,15.50873894,12.1,52.916916,5.573492,no,yes,no,2,Good
Eur,Finland,Harjavalta,2010,10.971,15.50873894,22.83419196,61.3233325,22.140001,no,yes,yes,2,Good
Eur,France,Harnes,2010,23.758,15.50873894,24.283,50.449456,2.9,no,yes,no,2,Good
Amr,United States of America,Harrisburg Carlisle PA,2010,15.65,11.3,22.83419196,40.25524733,-76.90504233,yes,no,yes,2,Good
Amr,United States of America,Harrisonburg VA,2010,29.55917566,11.2,19.6,38.47753,-78.81952,yes,no,no,2,Good
Eur,Austria,Hartberg,2010,24.251,15.50873894,20.515,47.282776,15.971944,no,yes,no,2,Good
Amr,United States of America,Hartford West Hartford East Hartford CT,2010,10.4,7.6,18.1,41.784722,-72.631667,no,no,no,1,Very Good
Eur,Germany,Harzgerode,2010,16.927,14.965,5.908,51.662453,11.043384,no,no,no,2,Good
Eur,Bulgaria,Haskovo,2010,50.054,15.50074344,17.19,41.930214,25.55265,no,yes,yes,4,Poor
Eur,Belgium,Hasselt,2010,23.743,20.524,28.66,50.940262,5.367084,no,no,no,3,Moderate
Eur,Turkey,Hatay,2010,66.805,15.50873501,22.83199748,36.152779,36.208889,no,yes,yes,4,Poor
Eur,Germany,Hattingen,2010,21.221,16.356,22.738,51.403008,7.208572,no,yes,no,2,Good
Eur,Germany,Hauptstrasse,2010,28.526,22.231,11.251,52.179561,14.667089,no,yes,no,3,Moderate
Eur,Czechia,Havirov,2010,53.307,37.84420599,26.13,49.790977,18.406836,no,yes,no,4,Poor
Eur,France,Hayange,2010,27.767,22.355,22.678,49.324722,6.076108,no,yes,no,3,Moderate
Eur,Netherlands (Kingdom of the),Heerlen,2010,26.302,20.041,38.175,50.887294,5.97257375,no,no,no,3,Moderate
Eur,Germany,Heidelberg,2010,24.932,9.194,28.23,49.416445,8.676768,no,yes,no,2,Good
Eur,Germany,Heilbronn,2010,27.926,13.38322222,30.885,49.16063475,9.22505475,no,yes,no,2,Good
Eur,Austria,Heiterwang,2010,15.489,15.52673269,25.427,47.447781,10.744175,no,yes,no,2,Good
Amr,United States of America,Helena MT,2010,29.55917566,9.3,22.83199748,46.754631,-112.0001265,yes,no,yes,2,Good
